{
"type": "FeatureCollection",
"name": "Malmo_AADT_2024",
"crs": { "type": "name", "properties": { "name": "urn:ogc:def:crs:OGC:1.3:CRS84" } },
"features": [
{ "type": "Feature", "properties": { "AADT": 1500, "TR_pct_AADT": 5.0, "raw_name": "STORMGATAN", "raw_oneway": false, "osm_name": "Stormgatan", "osm_type": "unclassified", "osm_lanes": null, "osm_oneway": "False", "osm_distance": 2.4043914663225294, "osm_maxspeed": 40.0, "osmid": 149413676.0 }, "geometry": { "type": "Point", "coordinates": [ 12.998994399, 55.611269775799997 ] } },
{ "type": "Feature", "properties": { "AADT": 4900, "TR_pct_AADT": 10.0, "raw_name": "SCHOUGENS BRO", "raw_oneway": false, "osm_name": "Schougens bro", "osm_type": "residential", "osm_lanes": null, "osm_oneway": null, "osm_distance": 0.1827989633083581, "osm_maxspeed": 40.0, "osmid": 28302709.0 }, "geometry": { "type": "Point", "coordinates": [ 13.013208908199999, 55.608094347250002 ] } },
{ "type": "Feature", "properties": { "AADT": 31800, "TR_pct_AADT": 14.0, "raw_name": "ÖSTERLENVÄGEN", "raw_oneway": false, "osm_name": "Österlenvägen", "osm_type": "motorway", "osm_lanes": 2.0, "osm_oneway": "True", "osm_distance": 5.7298938740254739, "osm_maxspeed": 90.0, "osmid": 1311623785.0 }, "geometry": { "type": "Point", "coordinates": [ 13.075910914581319, 55.604608934141119 ] } },
{ "type": "Feature", "properties": { "AADT": 7700, "TR_pct_AADT": 7.0, "raw_name": "SALLERUPSVÄGEN", "raw_oneway": false, "osm_name": "Malmövägen", "osm_type": "secondary", "osm_lanes": null, "osm_oneway": null, "osm_distance": 0.064117834945379884, "osm_maxspeed": 50.0, "osmid": 549045807.0 }, "geometry": { "type": "Point", "coordinates": [ 13.14522614745, 55.580414507049994 ] } },
{ "type": "Feature", "properties": { "AADT": 7800, "TR_pct_AADT": 8.0, "raw_name": "KLAGSTORPSVÄGEN", "raw_oneway": false, "osm_name": "Klagstorpsvägen", "osm_type": "secondary", "osm_lanes": 2.0, "osm_oneway": null, "osm_distance": 0.25759067905004468, "osm_maxspeed": 70.0, "osmid": 234499236.0 }, "geometry": { "type": "Point", "coordinates": [ 13.004257413099999, 55.530404150750002 ] } },
{ "type": "Feature", "properties": { "AADT": 800, "TR_pct_AADT": 8.0, "raw_name": "KRISTIANSTADSGATAN", "raw_oneway": false, "osm_name": "Kristianstadsgatan", "osm_type": "residential", "osm_lanes": null, "osm_oneway": null, "osm_distance": 0.10138507320077987, "osm_maxspeed": 40.0, "osmid": 38246702.0 }, "geometry": { "type": "Point", "coordinates": [ 13.0167762798, 55.59113355825 ] } },
{ "type": "Feature", "properties": { "AADT": 1000, "TR_pct_AADT": 3.0, "raw_name": "FOSIEVÄGEN", "raw_oneway": false, "osm_name": "Fosievägen", "osm_type": "unclassified", "osm_lanes": null, "osm_oneway": null, "osm_distance": 0.055496862093037905, "osm_maxspeed": null, "osmid": 294672057.0 }, "geometry": { "type": "Point", "coordinates": [ 13.011065724550001, 55.574933407 ] } },
{ "type": "Feature", "properties": { "AADT": 1300, "TR_pct_AADT": 16.0, "raw_name": "BEIJERSPARKSGATAN", "raw_oneway": false, "osm_name": "Beijersparksgatan", "osm_type": "residential", "osm_lanes": null, "osm_oneway": null, "osm_distance": 0.98117973254662427, "osm_maxspeed": 40.0, "osmid": 41110907.0 }, "geometry": { "type": "Point", "coordinates": [ 13.046266804599998, 55.610396166450002 ] } },
{ "type": "Feature", "properties": { "AADT": 3900, "TR_pct_AADT": 9.0, "raw_name": "RÅVÄGEN", "raw_oneway": false, "osm_name": "Råvägen", "osm_type": "tertiary", "osm_lanes": null, "osm_oneway": null, "osm_distance": 0.45467586630093199, "osm_maxspeed": 70.0, "osmid": 295678728.0 }, "geometry": { "type": "Point", "coordinates": [ 13.025110673050001, 55.52883725385 ] } },
{ "type": "Feature", "properties": { "AADT": 12900, "TR_pct_AADT": 14.0, "raw_name": "SPÅRVÄGSGATAN", "raw_oneway": false, "osm_name": "Spårvägsgatan", "osm_type": "tertiary", "osm_lanes": 1.0, "osm_oneway": "True", "osm_distance": 1.9780893181098249, "osm_maxspeed": 40.0, "osmid": 165787914.0 }, "geometry": { "type": "Point", "coordinates": [ 13.009908766950002, 55.587671422100001 ] } },
{ "type": "Feature", "properties": { "AADT": 300, "TR_pct_AADT": 7.0, "raw_name": "SMEDJEKULLSGATAN", "raw_oneway": false, "osm_name": "Smedjekullsgatan", "osm_type": "residential", "osm_lanes": null, "osm_oneway": "True", "osm_distance": 0.25370888930497121, "osm_maxspeed": 40.0, "osmid": 28191795.0 }, "geometry": { "type": "Point", "coordinates": [ 13.0465801899, 55.615404449799996 ] } },
{ "type": "Feature", "properties": { "AADT": 12700, "TR_pct_AADT": 8.0, "raw_name": "MARIEDALSVÄGEN", "raw_oneway": false, "osm_name": "Mariedalsvägen", "osm_type": "secondary", "osm_lanes": 2.0, "osm_oneway": null, "osm_distance": 0.66655836982367234, "osm_maxspeed": 40.0, "osmid": 23654581.0 }, "geometry": { "type": "Point", "coordinates": [ 12.9835515745, 55.592222949700002 ] } },
{ "type": "Feature", "properties": { "AADT": 16000, "TR_pct_AADT": 9.0, "raw_name": "MARIEDALSVÄGEN", "raw_oneway": false, "osm_name": "Mariedalsvägen", "osm_type": "secondary", "osm_lanes": 2.0, "osm_oneway": null, "osm_distance": 0.50475735453636794, "osm_maxspeed": 40.0, "osmid": 23654581.0 }, "geometry": { "type": "Point", "coordinates": [ 12.98356135555, 55.591412818850003 ] } },
{ "type": "Feature", "properties": { "AADT": 4500, "TR_pct_AADT": 11.0, "raw_name": "VÄSTRA VARVSGATAN", "raw_oneway": false, "osm_name": "Västra Varvsgatan", "osm_type": "unclassified", "osm_lanes": 1.0, "osm_oneway": "True", "osm_distance": 3.7555051661840775, "osm_maxspeed": 30.0, "osmid": 249170710.0 }, "geometry": { "type": "Point", "coordinates": [ 12.977531759207299, 55.61200984704989 ] } },
{ "type": "Feature", "properties": { "AADT": 12700, "TR_pct_AADT": 7.0, "raw_name": "UNIVERSITETSBRON", "raw_oneway": false, "osm_name": "Universitetsbron", "osm_type": "tertiary", "osm_lanes": 2.0, "osm_oneway": "False", "osm_distance": 0.54150182778391598, "osm_maxspeed": 40.0, "osmid": 1009101399.0 }, "geometry": { "type": "Point", "coordinates": [ 12.996893982759536, 55.612361854022403 ] } },
{ "type": "Feature", "properties": { "AADT": 300, "TR_pct_AADT": 3.0, "raw_name": "KRONETORPSGATAN", "raw_oneway": false, "osm_name": "Kronetorpsgatan", "osm_type": "residential", "osm_lanes": null, "osm_oneway": "False", "osm_distance": 1.1353472677892797, "osm_maxspeed": 40.0, "osmid": 30650015.0 }, "geometry": { "type": "Point", "coordinates": [ 13.04808320535, 55.614166694849999 ] } },
{ "type": "Feature", "properties": { "AADT": 100, "TR_pct_AADT": 2.0, "raw_name": "VÄRNANÄSGATAN", "raw_oneway": false, "osm_name": "Värnanäsgatan", "osm_type": "residential", "osm_lanes": null, "osm_oneway": null, "osm_distance": 0.18977523322156548, "osm_maxspeed": 40.0, "osmid": 28191794.0 }, "geometry": { "type": "Point", "coordinates": [ 13.04979125815, 55.613023349499997 ] } },
{ "type": "Feature", "properties": { "AADT": 600, "TR_pct_AADT": 5.0, "raw_name": "DALHEMSGATAN", "raw_oneway": false, "osm_name": "Dalhemsgatan", "osm_type": "residential", "osm_lanes": null, "osm_oneway": "False", "osm_distance": 0.033006931995437742, "osm_maxspeed": 40.0, "osmid": 41109536.0 }, "geometry": { "type": "Point", "coordinates": [ 13.040916523250001, 55.613014356649998 ] } },
{ "type": "Feature", "properties": { "AADT": 500, "TR_pct_AADT": 5.0, "raw_name": "KRONETORPSGATAN", "raw_oneway": false, "osm_name": "Kronetorpsgatan", "osm_type": "residential", "osm_lanes": null, "osm_oneway": null, "osm_distance": 0.21032960588197308, "osm_maxspeed": 40.0, "osmid": 30073472.0 }, "geometry": { "type": "Point", "coordinates": [ 13.04256055035, 55.611035376450005 ] } },
{ "type": "Feature", "properties": { "AADT": 4800, "TR_pct_AADT": 6.0, "raw_name": "GEIJERSGATAN", "raw_oneway": false, "osm_name": "Geijersgatan", "osm_type": "residential", "osm_lanes": null, "osm_oneway": "False", "osm_distance": 0.41055868022097369, "osm_maxspeed": 40.0, "osmid": 847068020.0 }, "geometry": { "type": "Point", "coordinates": [ 12.939468621749999, 55.591017365949995 ] } },
{ "type": "Feature", "properties": { "AADT": 800, "TR_pct_AADT": 9.0, "raw_name": "STORMGATAN", "raw_oneway": false, "osm_name": "Stormgatan", "osm_type": "unclassified", "osm_lanes": 2.0, "osm_oneway": null, "osm_distance": 1.1764526062046488, "osm_maxspeed": 40.0, "osmid": 295159913.0 }, "geometry": { "type": "Point", "coordinates": [ 12.998898972500001, 55.611758646150001 ] } },
{ "type": "Feature", "properties": { "AADT": 43500, "TR_pct_AADT": 12.0, "raw_name": "TRELLEBORGSVÄGEN", "raw_oneway": false, "osm_name": null, "osm_type": "motorway", "osm_lanes": 2.0, "osm_oneway": "True", "osm_distance": 8.8512301193488803, "osm_maxspeed": 110.0, "osmid": 365604432.0 }, "geometry": { "type": "Point", "coordinates": [ 13.008610598465022, 55.522554446573814 ] } },
{ "type": "Feature", "properties": { "AADT": 10900, "TR_pct_AADT": 5.0, "raw_name": "THOMSONS VÄG", "raw_oneway": false, "osm_name": "Thomsons väg", "osm_type": "residential", "osm_lanes": 1.0, "osm_oneway": "True", "osm_distance": 1.5495970344019512, "osm_maxspeed": 40.0, "osmid": 28665278.0 }, "geometry": { "type": "Point", "coordinates": [ 13.054355171488478, 55.58338593984621 ] } },
{ "type": "Feature", "properties": { "AADT": 3400, "TR_pct_AADT": 7.0, "raw_name": "ÄRTHOLMSVÄGEN", "raw_oneway": false, "osm_name": "Ärtholmsvägen", "osm_type": "residential", "osm_lanes": null, "osm_oneway": null, "osm_distance": 0.092195905556116314, "osm_maxspeed": 40.0, "osmid": 23618297.0 }, "geometry": { "type": "Point", "coordinates": [ 12.99258578885, 55.575326778650002 ] } },
{ "type": "Feature", "properties": { "AADT": 3400, "TR_pct_AADT": 22.0, "raw_name": "BORRGATAN", "raw_oneway": false, "osm_name": "Borrgatan", "osm_type": "unclassified", "osm_lanes": null, "osm_oneway": null, "osm_distance": 0.28037001049403615, "osm_maxspeed": 60.0, "osmid": 141654179.0 }, "geometry": { "type": "Point", "coordinates": [ 13.021207476600001, 55.615524833850003 ] } },
{ "type": "Feature", "properties": { "AADT": 1900, "TR_pct_AADT": 8.0, "raw_name": "ELISEDALSVÄGEN", "raw_oneway": false, "osm_name": "Elisedalsvägen", "osm_type": "tertiary", "osm_lanes": null, "osm_oneway": null, "osm_distance": 0.69758204225205656, "osm_maxspeed": 70.0, "osmid": 28288768.0 }, "geometry": { "type": "Point", "coordinates": [ 13.08553382325, 55.565836193349995 ] } },
{ "type": "Feature", "properties": { "AADT": 5800, "TR_pct_AADT": 7.0, "raw_name": "KALKBROTTSGATAN", "raw_oneway": false, "osm_name": "Kalkbrottsgatan", "osm_type": "tertiary", "osm_lanes": null, "osm_oneway": null, "osm_distance": 1.2086095381245037, "osm_maxspeed": 40.0, "osmid": 1237797432.0 }, "geometry": { "type": "Point", "coordinates": [ 12.920963730399999, 55.565875512649995 ] } },
{ "type": "Feature", "properties": { "AADT": 16500, "TR_pct_AADT": 9.0, "raw_name": "DROTTNINGGATAN", "raw_oneway": false, "osm_name": "Drottninggatan", "osm_type": "secondary", "osm_lanes": 2.0, "osm_oneway": "True", "osm_distance": 4.0844554716505428, "osm_maxspeed": 40.0, "osmid": 98939345.0 }, "geometry": { "type": "Point", "coordinates": [ 13.007167760350001, 55.602338016099999 ] } },
{ "type": "Feature", "properties": { "AADT": 1500, "TR_pct_AADT": 20.0, "raw_name": "HYLLIEVÅNGSVÄGEN", "raw_oneway": false, "osm_name": "Hyllievångsvägen", "osm_type": "residential", "osm_lanes": null, "osm_oneway": null, "osm_distance": 0.39670060940768592, "osm_maxspeed": 40.0, "osmid": 92892588.0 }, "geometry": { "type": "Point", "coordinates": [ 12.980557638800001, 55.568977425450008 ] } },
{ "type": "Feature", "properties": { "AADT": 29700, "TR_pct_AADT": 16.0, "raw_name": "YSTADVÄGEN", "raw_oneway": false, "osm_name": null, "osm_type": "motorway", "osm_lanes": 2.0, "osm_oneway": "True", "osm_distance": 4.656705753424669, "osm_maxspeed": 110.0, "osmid": 27405068.0 }, "geometry": { "type": "Point", "coordinates": [ 13.113648899114086, 55.552740766915917 ] } },
{ "type": "Feature", "properties": { "AADT": 2400, "TR_pct_AADT": 13.0, "raw_name": "BRONSYXEGATAN", "raw_oneway": false, "osm_name": "Bronsyxegatan", "osm_type": "unclassified", "osm_lanes": null, "osm_oneway": null, "osm_distance": 0.93427551006629439, "osm_maxspeed": 50.0, "osmid": 31053683.0 }, "geometry": { "type": "Point", "coordinates": [ 13.042175646600001, 55.563067464599996 ] } },
{ "type": "Feature", "properties": { "AADT": 3400, "TR_pct_AADT": 6.0, "raw_name": "S:T KNUTS VÄG", "raw_oneway": false, "osm_name": "Sankt Knuts väg", "osm_type": "residential", "osm_lanes": null, "osm_oneway": null, "osm_distance": 1.0523978347593712, "osm_maxspeed": 40.0, "osmid": 26254599.0 }, "geometry": { "type": "Point", "coordinates": [ 13.01635526115, 55.598284402350004 ] } },
{ "type": "Feature", "properties": { "AADT": 5500, "TR_pct_AADT": 8.0, "raw_name": "HOVRÄTTSBRON", "raw_oneway": false, "osm_name": "Hovrättsbron", "osm_type": "tertiary", "osm_lanes": null, "osm_oneway": "True", "osm_distance": 3.3736950304219562, "osm_maxspeed": 40.0, "osmid": 28303104.0 }, "geometry": { "type": "Point", "coordinates": [ 12.991988428900001, 55.606474311950002 ] } },
{ "type": "Feature", "properties": { "AADT": 800, "TR_pct_AADT": 6.0, "raw_name": "MÄSTER DANIELSGATAN", "raw_oneway": false, "osm_name": "Mäster Danielsgatan", "osm_type": "residential", "osm_lanes": null, "osm_oneway": null, "osm_distance": 0.90412192431262683, "osm_maxspeed": 40.0, "osmid": 37253591.0 }, "geometry": { "type": "Point", "coordinates": [ 13.014133277, 55.5967158216 ] } },
{ "type": "Feature", "properties": { "AADT": 12600, "TR_pct_AADT": 15.0, "raw_name": "KLAFFBRON", "raw_oneway": false, "osm_name": "Klaffbron", "osm_type": "tertiary", "osm_lanes": 2.0, "osm_oneway": null, "osm_distance": 0.12995624948167714, "osm_maxspeed": 30.0, "osmid": 10608574.0 }, "geometry": { "type": "Point", "coordinates": [ 12.9936359581, 55.612609082550001 ] } },
{ "type": "Feature", "properties": { "AADT": 1800, "TR_pct_AADT": 5.0, "raw_name": "FRIISGATAN", "raw_oneway": false, "osm_name": "Friisgatan", "osm_type": "residential", "osm_lanes": null, "osm_oneway": null, "osm_distance": 0.050986240760652085, "osm_maxspeed": 40.0, "osmid": 917403344.0 }, "geometry": { "type": "Point", "coordinates": [ 13.007808460850001, 55.594618895250001 ] } },
{ "type": "Feature", "properties": { "AADT": 4600, "TR_pct_AADT": 6.0, "raw_name": "HENRIKSDALSVÄGEN", "raw_oneway": false, "osm_name": "Henriksdalsvägen", "osm_type": "tertiary", "osm_lanes": 1.0, "osm_oneway": "True", "osm_distance": 0.11889045867454932, "osm_maxspeed": 40.0, "osmid": 188241372.0 }, "geometry": { "type": "Point", "coordinates": [ 12.983635005, 55.56363653535 ] } },
{ "type": "Feature", "properties": { "AADT": 1700, "TR_pct_AADT": 16.0, "raw_name": "ÖSTRA BUNKEFLOVÄGEN", "raw_oneway": false, "osm_name": "Östra Bunkeflovägen", "osm_type": "tertiary", "osm_lanes": 2.0, "osm_oneway": null, "osm_distance": 0.65070130857559882, "osm_maxspeed": 60.0, "osmid": 25046575.0 }, "geometry": { "type": "Point", "coordinates": [ 12.954559718300001, 55.557241047650002 ] } },
{ "type": "Feature", "properties": { "AADT": 20600, "TR_pct_AADT": 6.0, "raw_name": "PILDAMMSVÄGEN", "raw_oneway": false, "osm_name": "Pildammsvägen", "osm_type": "secondary", "osm_lanes": 2.0, "osm_oneway": "True", "osm_distance": 8.2699590092459481, "osm_maxspeed": 60.0, "osmid": 23618294.0 }, "geometry": { "type": "Point", "coordinates": [ 12.987212826133826, 55.569444028399317 ] } },
{ "type": "Feature", "properties": { "AADT": 26500, "TR_pct_AADT": 9.0, "raw_name": "HORNSGATAN", "raw_oneway": false, "osm_name": "Hornsgatan", "osm_type": "secondary", "osm_lanes": 3.0, "osm_oneway": "True", "osm_distance": 2.570126395876033, "osm_maxspeed": 40.0, "osmid": 136773630.0 }, "geometry": { "type": "Point", "coordinates": [ 13.024518587142785, 55.608382668949368 ] } },
{ "type": "Feature", "properties": { "AADT": 2200, "TR_pct_AADT": 74.0, "raw_name": "LAPPÖGATAN", "raw_oneway": false, "osm_name": "Lappögatan", "osm_type": "tertiary", "osm_lanes": null, "osm_oneway": null, "osm_distance": 0.32231519157973548, "osm_maxspeed": 60.0, "osmid": 165787909.0 }, "geometry": { "type": "Point", "coordinates": [ 13.013588071600001, 55.629364504249999 ] } },
{ "type": "Feature", "properties": { "AADT": 300, "TR_pct_AADT": 5.0, "raw_name": "MÄSTER PALMSGATAN", "raw_oneway": false, "osm_name": "Mäster Palmsgatan", "osm_type": "residential", "osm_lanes": null, "osm_oneway": "True", "osm_distance": 0.68957735514366536, "osm_maxspeed": 40.0, "osmid": 37541451.0 }, "geometry": { "type": "Point", "coordinates": [ 13.015946921599999, 55.595811578450004 ] } },
{ "type": "Feature", "properties": { "AADT": 10200, "TR_pct_AADT": 8.0, "raw_name": "ERIKSFÄLTSGATAN", "raw_oneway": false, "osm_name": "Eriksfältsgatan", "osm_type": "tertiary", "osm_lanes": 1.0, "osm_oneway": "True", "osm_distance": 8.5232313750266222, "osm_maxspeed": 40.0, "osmid": 28550681.0 }, "geometry": { "type": "Point", "coordinates": [ 13.021573443899999, 55.5650069852 ] } },
{ "type": "Feature", "properties": { "AADT": 1300, "TR_pct_AADT": 9.0, "raw_name": "FRIISGATAN", "raw_oneway": false, "osm_name": "Friisgatan", "osm_type": "residential", "osm_lanes": null, "osm_oneway": null, "osm_distance": 0.10693132990543054, "osm_maxspeed": 40.0, "osmid": 28417492.0 }, "geometry": { "type": "Point", "coordinates": [ 13.009080550549999, 55.594428085049998 ] } },
{ "type": "Feature", "properties": { "AADT": 9000, "TR_pct_AADT": 6.0, "raw_name": "BELLEVUEVÄGEN", "raw_oneway": false, "osm_name": "Bellevuevägen", "osm_type": "tertiary", "osm_lanes": 2.0, "osm_oneway": null, "osm_distance": 0.20092433422158806, "osm_maxspeed": 40.0, "osmid": 1078994317.0 }, "geometry": { "type": "Point", "coordinates": [ 12.971695967900001, 55.591014057 ] } },
{ "type": "Feature", "properties": { "AADT": 11100, "TR_pct_AADT": 7.0, "raw_name": "JOHN ERICSSONS VÄG", "raw_oneway": false, "osm_name": "John Ericssons väg", "osm_type": "secondary", "osm_lanes": 2.0, "osm_oneway": "True", "osm_distance": 2.6360363731499481, "osm_maxspeed": 40.0, "osmid": 28552877.0 }, "geometry": { "type": "Point", "coordinates": [ 12.997246507166697, 55.586467247599302 ] } },
{ "type": "Feature", "properties": { "AADT": 5400, "TR_pct_AADT": 13.0, "raw_name": "VATTENVERKSVÄGEN", "raw_oneway": false, "osm_name": "Vattenverksvägen", "osm_type": "tertiary", "osm_lanes": 2.0, "osm_oneway": null, "osm_distance": 0.46424285423030348, "osm_maxspeed": 40.0, "osmid": 693625439.0 }, "geometry": { "type": "Point", "coordinates": [ 13.088672253900002, 55.611078196599998 ] } },
{ "type": "Feature", "properties": { "AADT": 100, "TR_pct_AADT": 13.0, "raw_name": "KÄRLEKSGATAN", "raw_oneway": false, "osm_name": "Kärleksgatan", "osm_type": "residential", "osm_lanes": null, "osm_oneway": null, "osm_distance": 0.26093348847273889, "osm_maxspeed": 40.0, "osmid": 1333828578.0 }, "geometry": { "type": "Point", "coordinates": [ 12.99936633035, 55.598992805899996 ] } },
{ "type": "Feature", "properties": { "AADT": 9600, "TR_pct_AADT": 8.0, "raw_name": "HYLLIE ALLÉ", "raw_oneway": false, "osm_name": "Hyllie allé", "osm_type": "tertiary", "osm_lanes": null, "osm_oneway": "True", "osm_distance": 1.5070318747052847, "osm_maxspeed": 40.0, "osmid": 95123103.0 }, "geometry": { "type": "Point", "coordinates": [ 12.983120253, 55.561171554949993 ] } },
{ "type": "Feature", "properties": { "AADT": 2700, "TR_pct_AADT": 12.0, "raw_name": "JÄGERSROVÄGEN", "raw_oneway": false, "osm_name": "Jägersrovägen", "osm_type": "tertiary", "osm_lanes": 2.0, "osm_oneway": null, "osm_distance": 0.23387995008348059, "osm_maxspeed": 60.0, "osmid": 1381807040.0 }, "geometry": { "type": "Point", "coordinates": [ 13.08416335725, 55.566507117599997 ] } },
{ "type": "Feature", "properties": { "AADT": 1400, "TR_pct_AADT": 11.0, "raw_name": "MÖLLEVÅNGSGATAN", "raw_oneway": false, "osm_name": "Möllevångsgatan", "osm_type": "residential", "osm_lanes": null, "osm_oneway": null, "osm_distance": 0.72570345499840849, "osm_maxspeed": 40.0, "osmid": 10498348.0 }, "geometry": { "type": "Point", "coordinates": [ 13.008219004800001, 55.593194360249996 ] } },
{ "type": "Feature", "properties": { "AADT": 5100, "TR_pct_AADT": 19.0, "raw_name": "NORDENSKIÖLDSGATAN", "raw_oneway": false, "osm_name": "Nordenskiöldsgatan", "osm_type": "tertiary", "osm_lanes": 2.0, "osm_oneway": "False", "osm_distance": 1.0487873468169218, "osm_maxspeed": 40.0, "osmid": 249172731.0 }, "geometry": { "type": "Point", "coordinates": [ 12.994594893, 55.611847959550005 ] } },
{ "type": "Feature", "properties": { "AADT": 300, "TR_pct_AADT": 11.0, "raw_name": "MARIAGATAN", "raw_oneway": false, "osm_name": "Mariagatan", "osm_type": "living_street", "osm_lanes": null, "osm_oneway": null, "osm_distance": 0.65665298628949031, "osm_maxspeed": null, "osmid": 226863989.0 }, "geometry": { "type": "Point", "coordinates": [ 13.017750045500001, 55.595683561650006 ] } },
{ "type": "Feature", "properties": { "AADT": 1100, "TR_pct_AADT": 10.0, "raw_name": "KRISTIANSTADSGATAN", "raw_oneway": false, "osm_name": "Kristianstadsgatan", "osm_type": "residential", "osm_lanes": null, "osm_oneway": null, "osm_distance": 1.1262837458024322, "osm_maxspeed": 40.0, "osmid": 106948171.0 }, "geometry": { "type": "Point", "coordinates": [ 13.00796431875, 55.592499161549995 ] } },
{ "type": "Feature", "properties": { "AADT": 15900, "TR_pct_AADT": 9.0, "raw_name": "LUNDAVÄGEN", "raw_oneway": false, "osm_name": "Lundavägen", "osm_type": "tertiary", "osm_lanes": 2.0, "osm_oneway": "True", "osm_distance": 2.7579217062673838, "osm_maxspeed": 40.0, "osmid": 922952228.0 }, "geometry": { "type": "Point", "coordinates": [ 13.02560566915, 55.606326655700002 ] } },
{ "type": "Feature", "properties": { "AADT": 7900, "TR_pct_AADT": 15.0, "raw_name": "AMIRALSGATAN", "raw_oneway": false, "osm_name": "Amiralsgatan", "osm_type": "tertiary", "osm_lanes": null, "osm_oneway": null, "osm_distance": 0.022574660619094279, "osm_maxspeed": 60.0, "osmid": 28903762.0 }, "geometry": { "type": "Point", "coordinates": [ 13.074103685849998, 55.578441251949997 ] } },
{ "type": "Feature", "properties": { "AADT": 1100, "TR_pct_AADT": 6.0, "raw_name": "STENÖREGATAN", "raw_oneway": false, "osm_name": "Stenöregatan", "osm_type": "residential", "osm_lanes": null, "osm_oneway": null, "osm_distance": 0.41257532845262879, "osm_maxspeed": null, "osmid": 28274007.0 }, "geometry": { "type": "Point", "coordinates": [ 12.9188386513, 55.560253035 ] } },
{ "type": "Feature", "properties": { "AADT": 3400, "TR_pct_AADT": 6.0, "raw_name": "KÖPENHAMNSVÄGEN", "raw_oneway": false, "osm_name": "Köpenhamnsvägen", "osm_type": "tertiary", "osm_lanes": null, "osm_oneway": null, "osm_distance": 0.13795961055281875, "osm_maxspeed": 40.0, "osmid": 139640935.0 }, "geometry": { "type": "Point", "coordinates": [ 12.9717946292, 55.593624078449999 ] } },
{ "type": "Feature", "properties": { "AADT": 1300, "TR_pct_AADT": 13.0, "raw_name": "ERIK DAHLBERGSGATAN", "raw_oneway": false, "osm_name": "Erik Dahlbergsgatan", "osm_type": "residential", "osm_lanes": null, "osm_oneway": null, "osm_distance": 0.62788619669043577, "osm_maxspeed": 40.0, "osmid": 30801163.0 }, "geometry": { "type": "Point", "coordinates": [ 12.99017600845, 55.597243446250005 ] } },
{ "type": "Feature", "properties": { "AADT": 1300, "TR_pct_AADT": 12.0, "raw_name": "STORGATAN", "raw_oneway": false, "osm_name": "Storgatan", "osm_type": "residential", "osm_lanes": null, "osm_oneway": null, "osm_distance": 0.65030295494805856, "osm_maxspeed": 40.0, "osmid": 912582571.0 }, "geometry": { "type": "Point", "coordinates": [ 12.998891804400001, 55.599774004 ] } },
{ "type": "Feature", "properties": { "AADT": 1100, "TR_pct_AADT": 16.0, "raw_name": "SIMRISHAMNSGATAN", "raw_oneway": false, "osm_name": "Simrishamnsgatan", "osm_type": "residential", "osm_lanes": null, "osm_oneway": null, "osm_distance": 0.0045263896782934991, "osm_maxspeed": 40.0, "osmid": 785078274.0 }, "geometry": { "type": "Point", "coordinates": [ 13.011054656700001, 55.591438452299997 ] } },
{ "type": "Feature", "properties": { "AADT": 700, "TR_pct_AADT": 58.0, "raw_name": "VERKÖGATAN", "raw_oneway": false, "osm_name": "Verkögatan", "osm_type": "unclassified", "osm_lanes": null, "osm_oneway": null, "osm_distance": 0.34473796470989454, "osm_maxspeed": 60.0, "osmid": 718209946.0 }, "geometry": { "type": "Point", "coordinates": [ 13.0085323128, 55.631117496450003 ] } },
{ "type": "Feature", "properties": { "AADT": 14000, "TR_pct_AADT": 9.0, "raw_name": "SALLERUPSVÄGEN", "raw_oneway": false, "osm_name": "Sallerupsvägen", "osm_type": "secondary", "osm_lanes": 3.0, "osm_oneway": "True", "osm_distance": 2.5868802416881569, "osm_maxspeed": 40.0, "osmid": 232075236.0 }, "geometry": { "type": "Point", "coordinates": [ 13.037469745694263, 55.601378102510033 ] } },
{ "type": "Feature", "properties": { "AADT": 14600, "TR_pct_AADT": 8.0, "raw_name": "FRIHAMNSVIADUKTEN", "raw_oneway": false, "osm_name": "Frihamnsviadukten", "osm_type": "secondary", "osm_lanes": 2.0, "osm_oneway": "True", "osm_distance": 11.311260949976289, "osm_maxspeed": 40.0, "osmid": 975440134.0 }, "geometry": { "type": "Point", "coordinates": [ 13.018073571027898, 55.610857055327791 ] } },
{ "type": "Feature", "properties": { "AADT": 2000, "TR_pct_AADT": 35.0, "raw_name": "MORESCOBRON", "raw_oneway": false, "osm_name": "Torggatan", "osm_type": "residential", "osm_lanes": null, "osm_oneway": null, "osm_distance": 1.6883961065541357, "osm_maxspeed": 40.0, "osmid": 38093050.0 }, "geometry": { "type": "Point", "coordinates": [ 12.999414531949999, 55.601021225500006 ] } },
{ "type": "Feature", "properties": { "AADT": 11900, "TR_pct_AADT": 7.0, "raw_name": "VARVSBRON", "raw_oneway": false, "osm_name": "Västra Varvsgatan", "osm_type": "tertiary", "osm_lanes": 2.0, "osm_oneway": "True", "osm_distance": 0.23975715187069732, "osm_maxspeed": 40.0, "osmid": 28289463.0 }, "geometry": { "type": "Point", "coordinates": [ 12.9789920839, 55.605873356849997 ] } },
{ "type": "Feature", "properties": { "AADT": 1400, "TR_pct_AADT": 21.0, "raw_name": "ERIK DAHLBERGSGATAN", "raw_oneway": false, "osm_name": "Erik Dahlbergsgatan", "osm_type": "residential", "osm_lanes": null, "osm_oneway": null, "osm_distance": 0.16385645982287092, "osm_maxspeed": 40.0, "osmid": 25031867.0 }, "geometry": { "type": "Point", "coordinates": [ 12.996471013500001, 55.598579324499994 ] } },
{ "type": "Feature", "properties": { "AADT": 7300, "TR_pct_AADT": 10.0, "raw_name": "LUNDAVÄGEN", "raw_oneway": false, "osm_name": "Lundavägen", "osm_type": "secondary", "osm_lanes": 2.0, "osm_oneway": "True", "osm_distance": 3.9383564899091552, "osm_maxspeed": 40.0, "osmid": 308624559.0 }, "geometry": { "type": "Point", "coordinates": [ 13.066459581549999, 55.628014835149997 ] } },
{ "type": "Feature", "properties": { "AADT": 3200, "TR_pct_AADT": 6.0, "raw_name": "S:T KNUTS TORG", "raw_oneway": false, "osm_name": "Sankt Knuts torg", "osm_type": "residential", "osm_lanes": null, "osm_oneway": null, "osm_distance": 2.6678361140199387, "osm_maxspeed": 40.0, "osmid": 37253754.0 }, "geometry": { "type": "Point", "coordinates": [ 13.013034334449999, 55.596513400199996 ] } },
{ "type": "Feature", "properties": { "AADT": 8700, "TR_pct_AADT": 7.0, "raw_name": "SALLERUPSVÄGEN", "raw_oneway": false, "osm_name": "Malmövägen", "osm_type": "secondary", "osm_lanes": null, "osm_oneway": null, "osm_distance": 0.22645895062451635, "osm_maxspeed": 50.0, "osmid": 549045807.0 }, "geometry": { "type": "Point", "coordinates": [ 13.147005260899999, 55.5800435855 ] } },
{ "type": "Feature", "properties": { "AADT": 19600, "TR_pct_AADT": 11.0, "raw_name": "ANNETORPSVÄGEN", "raw_oneway": false, "osm_name": "Annetorpsvägen", "osm_type": "secondary", "osm_lanes": null, "osm_oneway": null, "osm_distance": 0.19267988417606899, "osm_maxspeed": 40.0, "osmid": 211692099.0 }, "geometry": { "type": "Point", "coordinates": [ 12.949190359700001, 55.56978188715 ] } },
{ "type": "Feature", "properties": { "AADT": 20800, "TR_pct_AADT": 10.0, "raw_name": "SALLERUPSVÄGEN", "raw_oneway": false, "osm_name": "Sallerupsvägen", "osm_type": "secondary", "osm_lanes": 2.0, "osm_oneway": "True", "osm_distance": 4.6151009914398049, "osm_maxspeed": 40.0, "osmid": 37005547.0 }, "geometry": { "type": "Point", "coordinates": [ 13.047199861046334, 55.598409116438305 ] } },
{ "type": "Feature", "properties": { "AADT": 12600, "TR_pct_AADT": 8.0, "raw_name": "SCHEELEGATAN", "raw_oneway": false, "osm_name": "Scheelegatan", "osm_type": "unclassified", "osm_lanes": 2.0, "osm_oneway": null, "osm_distance": 1.009980185854005, "osm_maxspeed": 40.0, "osmid": 37002397.0 }, "geometry": { "type": "Point", "coordinates": [ 13.03679742485, 55.589375620250003 ] } },
{ "type": "Feature", "properties": { "AADT": 1100, "TR_pct_AADT": 19.0, "raw_name": "KROMBYVÄGEN", "raw_oneway": false, "osm_name": "Krombyvägen", "osm_type": "tertiary", "osm_lanes": null, "osm_oneway": null, "osm_distance": 0.75438396226108628, "osm_maxspeed": 40.0, "osmid": 28841651.0 }, "geometry": { "type": "Point", "coordinates": [ 13.0767296352, 55.528455308749997 ] } },
{ "type": "Feature", "properties": { "AADT": 32100, "TR_pct_AADT": 9.0, "raw_name": "STOCKHOLMSVÄGEN", "raw_oneway": false, "osm_name": "Stockholmsvägen", "osm_type": "motorway", "osm_lanes": 2.0, "osm_oneway": "True", "osm_distance": 2.8037964857883688, "osm_maxspeed": 90.0, "osmid": 4453820.0 }, "geometry": { "type": "Point", "coordinates": [ 13.029035116199999, 55.609709006249993 ] } },
{ "type": "Feature", "properties": { "AADT": 8400, "TR_pct_AADT": 6.0, "raw_name": "KLAGSHAMNSVÄGEN", "raw_oneway": false, "osm_name": "Klagshamnsvägen", "osm_type": "tertiary", "osm_lanes": null, "osm_oneway": null, "osm_distance": 0.42717601897248864, "osm_maxspeed": 40.0, "osmid": 353377395.0 }, "geometry": { "type": "Point", "coordinates": [ 12.91849749515, 55.55492575665 ] } },
{ "type": "Feature", "properties": { "AADT": 1200, "TR_pct_AADT": 10.0, "raw_name": "STORGATAN", "raw_oneway": false, "osm_name": "Storgatan", "osm_type": "residential", "osm_lanes": 2.0, "osm_oneway": null, "osm_distance": 0.2901688342357841, "osm_maxspeed": 40.0, "osmid": 1180439083.0 }, "geometry": { "type": "Point", "coordinates": [ 12.996589195650001, 55.5996722808 ] } },
{ "type": "Feature", "properties": { "AADT": 1000, "TR_pct_AADT": 6.0, "raw_name": "BUNKEFLOVÄGEN", "raw_oneway": false, "osm_name": "Bunkeflovägen", "osm_type": "residential", "osm_lanes": null, "osm_oneway": null, "osm_distance": 0.96892841998423329, "osm_maxspeed": null, "osmid": 41986410.0 }, "geometry": { "type": "Point", "coordinates": [ 12.919899047200001, 55.560157837250003 ] } },
{ "type": "Feature", "properties": { "AADT": 3600, "TR_pct_AADT": 23.0, "raw_name": "LODGATAN", "raw_oneway": false, "osm_name": "Lodgatan", "osm_type": "unclassified", "osm_lanes": null, "osm_oneway": null, "osm_distance": 0.60487999690220329, "osm_maxspeed": 60.0, "osmid": 126738605.0 }, "geometry": { "type": "Point", "coordinates": [ 13.020386048800001, 55.615849133099999 ] } },
{ "type": "Feature", "properties": { "AADT": 1400, "TR_pct_AADT": 7.0, "raw_name": "FÅRABÄCKSVÄGEN", "raw_oneway": false, "osm_name": "Fårabäcksvägen", "osm_type": "tertiary", "osm_lanes": null, "osm_oneway": null, "osm_distance": 0.48358894407311404, "osm_maxspeed": 60.0, "osmid": 1221034426.0 }, "geometry": { "type": "Point", "coordinates": [ 13.119823738800003, 55.584516975049993 ] } },
{ "type": "Feature", "properties": { "AADT": 4900, "TR_pct_AADT": 13.0, "raw_name": "MÖLLEVÅNGSTORGET (SÖDER)", "raw_oneway": false, "osm_name": "Ystadsgatan", "osm_type": "residential", "osm_lanes": null, "osm_oneway": null, "osm_distance": 0.56254805452759538, "osm_maxspeed": 40.0, "osmid": 264281924.0 }, "geometry": { "type": "Point", "coordinates": [ 13.007560902249999, 55.591395345899997 ] } },
{ "type": "Feature", "properties": { "AADT": 400, "TR_pct_AADT": 9.0, "raw_name": "NORRA PARKGATAN", "raw_oneway": false, "osm_name": "Norra Parkgatan", "osm_type": "residential", "osm_lanes": null, "osm_oneway": null, "osm_distance": 0.49989295407361106, "osm_maxspeed": 40.0, "osmid": 37102845.0 }, "geometry": { "type": "Point", "coordinates": [ 13.01316113795, 55.595358001699999 ] } },
{ "type": "Feature", "properties": { "AADT": 9000, "TR_pct_AADT": 8.0, "raw_name": "DONAUGATAN", "raw_oneway": false, "osm_name": "Donaugatan", "osm_type": "unclassified", "osm_lanes": 2.0, "osm_oneway": null, "osm_distance": 0.028432484359003286, "osm_maxspeed": 40.0, "osmid": 41213998.0 }, "geometry": { "type": "Point", "coordinates": [ 13.011710215, 55.61171225715001 ] } },
{ "type": "Feature", "properties": { "AADT": 3700, "TR_pct_AADT": 13.0, "raw_name": "STORA NYGATAN", "raw_oneway": false, "osm_name": "Stora Nygatan", "osm_type": "residential", "osm_lanes": null, "osm_oneway": null, "osm_distance": 0.12261570591391327, "osm_maxspeed": 40.0, "osmid": 149768768.0 }, "geometry": { "type": "Point", "coordinates": [ 12.995672111299999, 55.602637467100003 ] } },
{ "type": "Feature", "properties": { "AADT": 2400, "TR_pct_AADT": 14.0, "raw_name": "KAPTENSGATAN", "raw_oneway": false, "osm_name": "Kaptensgatan", "osm_type": "residential", "osm_lanes": null, "osm_oneway": null, "osm_distance": 0.97252893762500614, "osm_maxspeed": 40.0, "osmid": 23401007.0 }, "geometry": { "type": "Point", "coordinates": [ 13.004233519949999, 55.601170400049995 ] } },
{ "type": "Feature", "properties": { "AADT": 1500, "TR_pct_AADT": 11.0, "raw_name": "PER WEIJERSGATAN", "raw_oneway": false, "osm_name": "Grynbodgatan", "osm_type": "residential", "osm_lanes": null, "osm_oneway": null, "osm_distance": 0.80430104932060908, "osm_maxspeed": 40.0, "osmid": 211099604.0 }, "geometry": { "type": "Point", "coordinates": [ 12.998618425850001, 55.603693366350001 ] } },
{ "type": "Feature", "properties": { "AADT": 2500, "TR_pct_AADT": 8.0, "raw_name": "GRYNBODGATAN", "raw_oneway": false, "osm_name": "Grynbodgatan", "osm_type": "residential", "osm_lanes": null, "osm_oneway": "True", "osm_distance": 0.44597134013944728, "osm_maxspeed": 40.0, "osmid": 149431756.0 }, "geometry": { "type": "Point", "coordinates": [ 12.994623281649998, 55.6034891794 ] } },
{ "type": "Feature", "properties": { "AADT": 3600, "TR_pct_AADT": 9.0, "raw_name": "KLAGSHAMNSVÄGEN", "raw_oneway": false, "osm_name": "Klagshamnsvägen", "osm_type": "tertiary", "osm_lanes": null, "osm_oneway": null, "osm_distance": 0.92552599434987715, "osm_maxspeed": 40.0, "osmid": 165312477.0 }, "geometry": { "type": "Point", "coordinates": [ 12.91819167185, 55.546105507100002 ] } },
{ "type": "Feature", "properties": { "AADT": 10500, "TR_pct_AADT": 15.0, "raw_name": "SLUSSBRON", "raw_oneway": false, "osm_name": "Slussbron", "osm_type": "secondary", "osm_lanes": null, "osm_oneway": null, "osm_distance": 0.02249239096814306, "osm_maxspeed": 40.0, "osmid": 27647130.0 }, "geometry": { "type": "Point", "coordinates": [ 13.01274446955, 55.60918549825 ] } },
{ "type": "Feature", "properties": { "AADT": 5000, "TR_pct_AADT": 7.0, "raw_name": "AMIRALSGATAN", "raw_oneway": false, "osm_name": "Amiralsgatan", "osm_type": "tertiary", "osm_lanes": 2.0, "osm_oneway": null, "osm_distance": 0.78628520629984355, "osm_maxspeed": 60.0, "osmid": 270001205.0 }, "geometry": { "type": "Point", "coordinates": [ 13.065476894650001, 55.579533515600005 ] } },
{ "type": "Feature", "properties": { "AADT": 3200, "TR_pct_AADT": 10.0, "raw_name": "KLAGSTORPSVÄGEN", "raw_oneway": false, "osm_name": "Klagstorpsvägen", "osm_type": "tertiary", "osm_lanes": null, "osm_oneway": null, "osm_distance": 0.22241497755841147, "osm_maxspeed": 70.0, "osmid": 52074726.0 }, "geometry": { "type": "Point", "coordinates": [ 13.0099031982, 55.530128906050003 ] } },
{ "type": "Feature", "properties": { "AADT": 16600, "TR_pct_AADT": 7.0, "raw_name": "PILDAMMSVÄGEN", "raw_oneway": false, "osm_name": "Pildammsvägen", "osm_type": "secondary", "osm_lanes": 4.0, "osm_oneway": null, "osm_distance": 1.3983411748839838, "osm_maxspeed": 40.0, "osmid": 139667343.0 }, "geometry": { "type": "Point", "coordinates": [ 12.99763762485, 55.593014646149996 ] } },
{ "type": "Feature", "properties": { "AADT": 1600, "TR_pct_AADT": 20.0, "raw_name": "ARLÖVSVÄGEN", "raw_oneway": false, "osm_name": "Arlövsvägen", "osm_type": "unclassified", "osm_lanes": null, "osm_oneway": null, "osm_distance": 0.31714025304083221, "osm_maxspeed": 40.0, "osmid": 23401417.0 }, "geometry": { "type": "Point", "coordinates": [ 13.057326466, 55.632877317850003 ] } },
{ "type": "Feature", "properties": { "AADT": 1100, "TR_pct_AADT": 60.0, "raw_name": "UTÖGATAN", "raw_oneway": false, "osm_name": "Utögatan", "osm_type": "unclassified", "osm_lanes": null, "osm_oneway": null, "osm_distance": 2.5786575728568835, "osm_maxspeed": 60.0, "osmid": 699851381.0 }, "geometry": { "type": "Point", "coordinates": [ 13.01467459265, 55.629879524599993 ] } },
{ "type": "Feature", "properties": { "AADT": 10100, "TR_pct_AADT": 7.0, "raw_name": "PILDAMMSVÄGEN", "raw_oneway": false, "osm_name": "Pildammsvägen", "osm_type": "secondary", "osm_lanes": 4.0, "osm_oneway": "True", "osm_distance": 3.018405863435706, "osm_maxspeed": 60.0, "osmid": 39108310.0 }, "geometry": { "type": "Point", "coordinates": [ 12.982568451053282, 55.549861658874555 ] } },
{ "type": "Feature", "properties": { "AADT": 800, "TR_pct_AADT": 4.0, "raw_name": "SORGENFRIVÄGEN", "raw_oneway": false, "osm_name": "Sorgenfrivägen", "osm_type": "residential", "osm_lanes": null, "osm_oneway": "True", "osm_distance": 0.6790727639011952, "osm_maxspeed": 40.0, "osmid": 37183737.0 }, "geometry": { "type": "Point", "coordinates": [ 13.018483374199999, 55.597160397750002 ] } },
{ "type": "Feature", "properties": { "AADT": 3900, "TR_pct_AADT": 6.0, "raw_name": "CARLSGATAN", "raw_oneway": false, "osm_name": "Carlsgatan", "osm_type": "tertiary", "osm_lanes": 2.0, "osm_oneway": null, "osm_distance": 1.2531408958231927, "osm_maxspeed": 40.0, "osmid": 126738603.0 }, "geometry": { "type": "Point", "coordinates": [ 13.003419813799999, 55.610816415 ] } },
{ "type": "Feature", "properties": { "AADT": 12400, "TR_pct_AADT": 6.0, "raw_name": "GOTTORPSVÄGEN", "raw_oneway": false, "osm_name": "Gottorpsvägen", "osm_type": "tertiary", "osm_lanes": null, "osm_oneway": null, "osm_distance": 0.0059518216014169383, "osm_maxspeed": 60.0, "osmid": 25046574.0 }, "geometry": { "type": "Point", "coordinates": [ 12.943134171250001, 55.557169984950008 ] } },
{ "type": "Feature", "properties": { "AADT": 14000, "TR_pct_AADT": 9.0, "raw_name": "CARLSGATAN", "raw_oneway": false, "osm_name": "Carlsgatan", "osm_type": "tertiary", "osm_lanes": 2.0, "osm_oneway": "True", "osm_distance": 1.6646280343458946, "osm_maxspeed": 40.0, "osmid": 467620585.0 }, "geometry": { "type": "Point", "coordinates": [ 13.016694721800002, 55.611739581099997 ] } },
{ "type": "Feature", "properties": { "AADT": 3200, "TR_pct_AADT": 6.0, "raw_name": "SPÅNGATAN", "raw_oneway": false, "osm_name": "Spångatan", "osm_type": "residential", "osm_lanes": 2.0, "osm_oneway": null, "osm_distance": 0.33315742067705179, "osm_maxspeed": 40.0, "osmid": 10498354.0 }, "geometry": { "type": "Point", "coordinates": [ 13.009692961700001, 55.596120941050003 ] } },
{ "type": "Feature", "properties": { "AADT": 3900, "TR_pct_AADT": 9.0, "raw_name": "YSTADSGATAN", "raw_oneway": false, "osm_name": "Ystadsgatan", "osm_type": "residential", "osm_lanes": null, "osm_oneway": null, "osm_distance": 0.20246820868477811, "osm_maxspeed": 40.0, "osmid": 264281923.0 }, "geometry": { "type": "Point", "coordinates": [ 13.0089130412, 55.591150301699997 ] } },
{ "type": "Feature", "properties": { "AADT": 16500, "TR_pct_AADT": 7.0, "raw_name": "LORENSBORGSGATAN", "raw_oneway": false, "osm_name": "Lorensborgsgatan", "osm_type": "secondary", "osm_lanes": 2.0, "osm_oneway": "True", "osm_distance": 9.3337400733470179, "osm_maxspeed": 60.0, "osmid": 30070610.0 }, "geometry": { "type": "Point", "coordinates": [ 12.968936905231866, 55.567701759764617 ] } },
{ "type": "Feature", "properties": { "AADT": 1900, "TR_pct_AADT": 7.0, "raw_name": "CAROLIBRON", "raw_oneway": false, "osm_name": "Carolibron", "osm_type": "residential", "osm_lanes": 2.0, "osm_oneway": null, "osm_distance": 0.18796715431851477, "osm_maxspeed": 40.0, "osmid": 28302704.0 }, "geometry": { "type": "Point", "coordinates": [ 13.0141065105, 55.606177578049994 ] } },
{ "type": "Feature", "properties": { "AADT": 10600, "TR_pct_AADT": 7.0, "raw_name": "ÖSTRA RÖNNEHOLMSVÄGEN", "raw_oneway": false, "osm_name": "Östra Rönneholmsvägen", "osm_type": "tertiary", "osm_lanes": null, "osm_oneway": null, "osm_distance": 1.1236262419650691, "osm_maxspeed": 40.0, "osmid": 24161676.0 }, "geometry": { "type": "Point", "coordinates": [ 12.993494992850001, 55.59659382960001 ] } },
{ "type": "Feature", "properties": { "AADT": 1400, "TR_pct_AADT": 37.0, "raw_name": "FLINTRÄNNEGATAN", "raw_oneway": false, "osm_name": "Flintrännegatan", "osm_type": "unclassified", "osm_lanes": null, "osm_oneway": "True", "osm_distance": 14.230852693014658, "osm_maxspeed": 60.0, "osmid": 141614526.0 }, "geometry": { "type": "Point", "coordinates": [ 13.036106969785694, 55.630275281118692 ] } },
{ "type": "Feature", "properties": { "AADT": 7900, "TR_pct_AADT": 5.0, "raw_name": "HYLLIE STATIONSVÄG", "raw_oneway": false, "osm_name": null, "osm_type": "tertiary", "osm_lanes": 1.0, "osm_oneway": "True", "osm_distance": 1.0018078960796146, "osm_maxspeed": null, "osmid": 30651291.0 }, "geometry": { "type": "Point", "coordinates": [ 12.964807817900001, 55.561831489550002 ] } },
{ "type": "Feature", "properties": { "AADT": 18400, "TR_pct_AADT": 17.0, "raw_name": "VÄSTKUSTVÄGEN", "raw_oneway": false, "osm_name": "Västkustvägen", "osm_type": "trunk", "osm_lanes": 2.0, "osm_oneway": "True", "osm_distance": 8.8072158275920867, "osm_maxspeed": 70.0, "osmid": 28442756.0 }, "geometry": { "type": "Point", "coordinates": [ 13.056179461034311, 55.633993717806831 ] } },
{ "type": "Feature", "properties": { "AADT": 800, "TR_pct_AADT": 43.0, "raw_name": "TERMINALGATAN", "raw_oneway": false, "osm_name": "Terminalgatan", "osm_type": "unclassified", "osm_lanes": null, "osm_oneway": null, "osm_distance": 1.1534783478628143, "osm_maxspeed": 60.0, "osmid": 250698832.0 }, "geometry": { "type": "Point", "coordinates": [ 13.01189883935, 55.620868904700004 ] } },
{ "type": "Feature", "properties": { "AADT": 3400, "TR_pct_AADT": 10.0, "raw_name": "LOCKARPS KYRKOVÄG", "raw_oneway": false, "osm_name": "Lockarps kyrkoväg", "osm_type": "tertiary", "osm_lanes": null, "osm_oneway": null, "osm_distance": 0.19568662037951343, "osm_maxspeed": 40.0, "osmid": 295678725.0 }, "geometry": { "type": "Point", "coordinates": [ 13.03655365405, 55.541315394249999 ] } },
{ "type": "Feature", "properties": { "AADT": 600, "TR_pct_AADT": 5.0, "raw_name": "SORGENFRIVÄGEN", "raw_oneway": false, "osm_name": "Sorgenfrivägen", "osm_type": "residential", "osm_lanes": null, "osm_oneway": "True", "osm_distance": 0.36308711761761603, "osm_maxspeed": 40.0, "osmid": 412071078.0 }, "geometry": { "type": "Point", "coordinates": [ 13.016104965549999, 55.597686240249999 ] } },
{ "type": "Feature", "properties": { "AADT": 1100, "TR_pct_AADT": 8.0, "raw_name": "FALSTERBOGATAN", "raw_oneway": false, "osm_name": "Falsterbogatan", "osm_type": "residential", "osm_lanes": null, "osm_oneway": null, "osm_distance": 0.15106321927574953, "osm_maxspeed": 40.0, "osmid": 28417352.0 }, "geometry": { "type": "Point", "coordinates": [ 13.0158383389, 55.594164105649995 ] } },
{ "type": "Feature", "properties": { "AADT": 4700, "TR_pct_AADT": 6.0, "raw_name": "JOHANNESLUSTGATAN", "raw_oneway": false, "osm_name": "Johanneslustgatan", "osm_type": "residential", "osm_lanes": null, "osm_oneway": null, "osm_distance": 0.51882064085355173, "osm_maxspeed": 40.0, "osmid": 149768765.0 }, "geometry": { "type": "Point", "coordinates": [ 13.045645597450001, 55.599619937349999 ] } },
{ "type": "Feature", "properties": { "AADT": 4200, "TR_pct_AADT": 10.0, "raw_name": "DROTTNINGTORGET", "raw_oneway": false, "osm_name": "Östergatan", "osm_type": "residential", "osm_lanes": null, "osm_oneway": null, "osm_distance": 0.01916731162837541, "osm_maxspeed": 40.0, "osmid": 149413791.0 }, "geometry": { "type": "Point", "coordinates": [ 13.009871190150001, 55.607843316349999 ] } },
{ "type": "Feature", "properties": { "AADT": 2200, "TR_pct_AADT": 10.0, "raw_name": "ANNETORPSVÄGEN", "raw_oneway": false, "osm_name": null, "osm_type": "primary_link", "osm_lanes": 1.0, "osm_oneway": "True", "osm_distance": 0.055732333429058804, "osm_maxspeed": 90.0, "osmid": 46107292.0 }, "geometry": { "type": "Point", "coordinates": [ 12.974780831050001, 55.568126844199995 ] } },
{ "type": "Feature", "properties": { "AADT": 24000, "TR_pct_AADT": 9.0, "raw_name": "AMIRALSGATAN", "raw_oneway": false, "osm_name": null, "osm_type": null, "osm_lanes": null, "osm_oneway": null, "osm_distance": null, "osm_maxspeed": null, "osmid": null }, "geometry": { "type": "Point", "coordinates": [ 13.051825465068905, 55.583846503382631 ] } },
{ "type": "Feature", "properties": { "AADT": 19500, "TR_pct_AADT": 6.0, "raw_name": "NOBELVÄGEN", "raw_oneway": false, "osm_name": "Nobelvägen", "osm_type": "secondary", "osm_lanes": 2.0, "osm_oneway": "True", "osm_distance": 1.6469913037081509, "osm_maxspeed": 40.0, "osmid": 1304051594.0 }, "geometry": { "type": "Point", "coordinates": [ 13.01069468315, 55.586475818700002 ] } },
{ "type": "Feature", "properties": { "AADT": 13400, "TR_pct_AADT": 13.0, "raw_name": "BERGSGATAN", "raw_oneway": false, "osm_name": "Bergsgatan", "osm_type": "tertiary", "osm_lanes": null, "osm_oneway": "True", "osm_distance": 3.223254130347843, "osm_maxspeed": 40.0, "osmid": 106948187.0 }, "geometry": { "type": "Point", "coordinates": [ 13.006433839251883, 55.590920125992163 ] } },
{ "type": "Feature", "properties": { "AADT": 1400, "TR_pct_AADT": 4.0, "raw_name": "ÄNGSMARKSVÄGEN", "raw_oneway": false, "osm_name": "Ängsmarksvägen", "osm_type": "residential", "osm_lanes": null, "osm_oneway": null, "osm_distance": 0.090019206044894093, "osm_maxspeed": null, "osmid": 41985964.0 }, "geometry": { "type": "Point", "coordinates": [ 12.918604470649999, 55.558047691 ] } },
{ "type": "Feature", "properties": { "AADT": 5700, "TR_pct_AADT": 20.0, "raw_name": "MÄLARBRON", "raw_oneway": false, "osm_name": "Skeppsbron", "osm_type": "tertiary", "osm_lanes": 4.0, "osm_oneway": null, "osm_distance": 0.20615562514072944, "osm_maxspeed": 40.0, "osmid": 28290415.0 }, "geometry": { "type": "Point", "coordinates": [ 12.999360296, 55.608082043799996 ] } },
{ "type": "Feature", "properties": { "AADT": 16700, "TR_pct_AADT": 15.0, "raw_name": "TOFTANÄSVÄGEN", "raw_oneway": false, "osm_name": "Toftanäsvägen", "osm_type": "tertiary", "osm_lanes": null, "osm_oneway": null, "osm_distance": 2.2368439786854366, "osm_maxspeed": 40.0, "osmid": 141654173.0 }, "geometry": { "type": "Point", "coordinates": [ 13.093131802549999, 55.607836233699999 ] } },
{ "type": "Feature", "properties": { "AADT": 8900, "TR_pct_AADT": 9.0, "raw_name": "PETERSBORGS TRAFIKPLATS", "raw_oneway": false, "osm_name": null, "osm_type": "motorway_link", "osm_lanes": 2.0, "osm_oneway": "True", "osm_distance": 0.25603563654961864, "osm_maxspeed": 110.0, "osmid": 301812680.0 }, "geometry": { "type": "Point", "coordinates": [ 13.00011575195, 55.550694077399996 ] } },
{ "type": "Feature", "properties": { "AADT": 6000, "TR_pct_AADT": 8.0, "raw_name": "ÖSTRA FARMVÄGEN", "raw_oneway": false, "osm_name": "Östra Farmvägen", "osm_type": "tertiary", "osm_lanes": 2.0, "osm_oneway": null, "osm_distance": 0.29169379094510856, "osm_maxspeed": 40.0, "osmid": 159090936.0 }, "geometry": { "type": "Point", "coordinates": [ 13.027693686900001, 55.591302000500001 ] } },
{ "type": "Feature", "properties": { "AADT": 16600, "TR_pct_AADT": 7.0, "raw_name": "LORENSBORGSGATAN", "raw_oneway": false, "osm_name": "Lorensborgsgatan", "osm_type": "secondary", "osm_lanes": 1.0, "osm_oneway": "True", "osm_distance": 9.5028967114606679, "osm_maxspeed": 70.0, "osmid": 820450155.0 }, "geometry": { "type": "Point", "coordinates": [ 12.954320881289329, 55.554969515922402 ] } },
{ "type": "Feature", "properties": { "AADT": 6700, "TR_pct_AADT": 11.0, "raw_name": "UTSTÄLLNINGSGATAN", "raw_oneway": false, "osm_name": "Utställningsgatan", "osm_type": "unclassified", "osm_lanes": null, "osm_oneway": null, "osm_distance": 0.55840973579954156, "osm_maxspeed": 40.0, "osmid": 249121399.0 }, "geometry": { "type": "Point", "coordinates": [ 13.00026793935, 55.610890601500003 ] } },
{ "type": "Feature", "properties": { "AADT": 400, "TR_pct_AADT": 10.0, "raw_name": "LOCKARPS KYRKOVÄG", "raw_oneway": false, "osm_name": "Lockarps kyrkoväg", "osm_type": "unclassified", "osm_lanes": null, "osm_oneway": null, "osm_distance": 0.065634267970348548, "osm_maxspeed": null, "osmid": 295678721.0 }, "geometry": { "type": "Point", "coordinates": [ 13.03875715355, 55.541469931249999 ] } },
{ "type": "Feature", "properties": { "AADT": 28000, "TR_pct_AADT": 15.0, "raw_name": "VÄG11", "raw_oneway": false, "osm_name": null, "osm_type": "motorway", "osm_lanes": 2.0, "osm_oneway": "True", "osm_distance": 5.3025186075556086, "osm_maxspeed": 110.0, "osmid": 135935011.0 }, "geometry": { "type": "Point", "coordinates": [ 13.098719294622686, 55.609428060922944 ] } },
{ "type": "Feature", "properties": { "AADT": 3700, "TR_pct_AADT": 7.0, "raw_name": "HYLLIEVÅNGSVÄGEN", "raw_oneway": false, "osm_name": "Hyllievångsvägen", "osm_type": "unclassified", "osm_lanes": null, "osm_oneway": null, "osm_distance": 0.18779115325529319, "osm_maxspeed": 40.0, "osmid": 89272856.0 }, "geometry": { "type": "Point", "coordinates": [ 12.9745545903, 55.571223879400002 ] } },
{ "type": "Feature", "properties": { "AADT": 8000, "TR_pct_AADT": 9.0, "raw_name": "VÄSTRA HINDBYVÄGEN", "raw_oneway": false, "osm_name": "Västra Hindbyvägen", "osm_type": "residential", "osm_lanes": null, "osm_oneway": null, "osm_distance": 3.1316987073520952, "osm_maxspeed": 40.0, "osmid": 30029468.0 }, "geometry": { "type": "Point", "coordinates": [ 13.023818836740585, 55.577262442844429 ] } },
{ "type": "Feature", "properties": { "AADT": 6800, "TR_pct_AADT": 18.0, "raw_name": "LODGATAN", "raw_oneway": false, "osm_name": "Lodgatan", "osm_type": "unclassified", "osm_lanes": null, "osm_oneway": "True", "osm_distance": 2.5334860824980203, "osm_maxspeed": 40.0, "osmid": 28422271.0 }, "geometry": { "type": "Point", "coordinates": [ 13.020506523725365, 55.615245210940721 ] } },
{ "type": "Feature", "properties": { "AADT": 14200, "TR_pct_AADT": 21.0, "raw_name": "DROTTNINGGATAN", "raw_oneway": false, "osm_name": "Drottninggatan", "osm_type": "secondary", "osm_lanes": 2.0, "osm_oneway": "True", "osm_distance": 5.4880556083625232, "osm_maxspeed": 40.0, "osmid": 136773633.0 }, "geometry": { "type": "Point", "coordinates": [ 13.020677006460412, 55.607038804149894 ] } },
{ "type": "Feature", "properties": { "AADT": 7700, "TR_pct_AADT": 6.0, "raw_name": "CITADELLSVÄGEN", "raw_oneway": false, "osm_name": "Citadellsvägen", "osm_type": "tertiary", "osm_lanes": 2.0, "osm_oneway": "False", "osm_distance": 0.90575237577693513, "osm_maxspeed": 40.0, "osmid": 139659124.0 }, "geometry": { "type": "Point", "coordinates": [ 12.982886028049998, 55.605891740849998 ] } },
{ "type": "Feature", "properties": { "AADT": 1700, "TR_pct_AADT": 10.0, "raw_name": "GLOSTORPSVÄGEN", "raw_oneway": false, "osm_name": "Glostorpsvägen", "osm_type": "tertiary", "osm_lanes": null, "osm_oneway": null, "osm_distance": 1.4753622123528649, "osm_maxspeed": 70.0, "osmid": 1012861400.0 }, "geometry": { "type": "Point", "coordinates": [ 13.01814646045, 55.516121446100001 ] } },
{ "type": "Feature", "properties": { "AADT": 1800, "TR_pct_AADT": 3.0, "raw_name": "LAAVÄGEN", "raw_oneway": false, "osm_name": "Laavägen", "osm_type": "residential", "osm_lanes": null, "osm_oneway": null, "osm_distance": 0.33589666306498073, "osm_maxspeed": null, "osmid": 28274327.0 }, "geometry": { "type": "Point", "coordinates": [ 12.998342657649999, 55.520490744050008 ] } },
{ "type": "Feature", "properties": { "AADT": 300, "TR_pct_AADT": 53.0, "raw_name": "UTÖGATAN", "raw_oneway": false, "osm_name": "Utögatan", "osm_type": "unclassified", "osm_lanes": null, "osm_oneway": null, "osm_distance": 1.2305987454482872, "osm_maxspeed": 60.0, "osmid": 1125363358.0 }, "geometry": { "type": "Point", "coordinates": [ 13.0141640553, 55.632029504649992 ] } },
{ "type": "Feature", "properties": { "AADT": 3100, "TR_pct_AADT": 6.0, "raw_name": "ANNETORPSVÄGEN", "raw_oneway": false, "osm_name": null, "osm_type": "primary_link", "osm_lanes": 1.0, "osm_oneway": "True", "osm_distance": 1.103984830247678, "osm_maxspeed": 90.0, "osmid": 326226463.0 }, "geometry": { "type": "Point", "coordinates": [ 12.973872513749999, 55.566503840150013 ] } },
{ "type": "Feature", "properties": { "AADT": 8300, "TR_pct_AADT": 5.0, "raw_name": "INDUSTRIGATAN", "raw_oneway": false, "osm_name": "Industrigatan", "osm_type": "unclassified", "osm_lanes": 2.0, "osm_oneway": null, "osm_distance": 0.25489519418341672, "osm_maxspeed": null, "osmid": 149768763.0 }, "geometry": { "type": "Point", "coordinates": [ 13.030878310849999, 55.598094038199996 ] } },
{ "type": "Feature", "properties": { "AADT": 18500, "TR_pct_AADT": 5.0, "raw_name": "PILDAMMSVÄGEN", "raw_oneway": false, "osm_name": "Pildammsvägen", "osm_type": "secondary", "osm_lanes": 4.0, "osm_oneway": null, "osm_distance": 2.0013551100702918, "osm_maxspeed": 40.0, "osmid": 1023448275.0 }, "geometry": { "type": "Point", "coordinates": [ 12.997712725900001, 55.59172578095 ] } },
{ "type": "Feature", "properties": { "AADT": 3600, "TR_pct_AADT": 7.0, "raw_name": "BANGATAN", "raw_oneway": false, "osm_name": "Bangatan", "osm_type": "residential", "osm_lanes": null, "osm_oneway": null, "osm_distance": 1.5161553601390076, "osm_maxspeed": 40.0, "osmid": 28414988.0 }, "geometry": { "type": "Point", "coordinates": [ 13.009080413700001, 55.588360664700005 ] } },
{ "type": "Feature", "properties": { "AADT": 10000, "TR_pct_AADT": 11.0, "raw_name": "ARRIEVÄGEN", "raw_oneway": false, "osm_name": "Arrievägen", "osm_type": "secondary", "osm_lanes": 2.0, "osm_oneway": null, "osm_distance": 0.75304806842554572, "osm_maxspeed": 60.0, "osmid": 28550709.0 }, "geometry": { "type": "Point", "coordinates": [ 13.027215397199999, 55.558338016600004 ] } },
{ "type": "Feature", "properties": { "AADT": 4700, "TR_pct_AADT": 10.0, "raw_name": "GÅNGLÅTSVÄGEN", "raw_oneway": false, "osm_name": "Gånglåtsvägen", "osm_type": "unclassified", "osm_lanes": null, "osm_oneway": null, "osm_distance": 0.30204876313066503, "osm_maxspeed": 50.0, "osmid": 249176384.0 }, "geometry": { "type": "Point", "coordinates": [ 13.02019942169551, 55.55792700393166 ] } },
{ "type": "Feature", "properties": { "AADT": 3900, "TR_pct_AADT": 8.0, "raw_name": "HUSIEVÄGEN", "raw_oneway": false, "osm_name": "Husievägen", "osm_type": "tertiary", "osm_lanes": null, "osm_oneway": null, "osm_distance": 0.49057852262074053, "osm_maxspeed": 40.0, "osmid": 1141987965.0 }, "geometry": { "type": "Point", "coordinates": [ 13.085084266900001, 55.576249686950007 ] } },
{ "type": "Feature", "properties": { "AADT": 4100, "TR_pct_AADT": 8.0, "raw_name": "TYGELSJÖVÄGEN", "raw_oneway": false, "osm_name": "Tygelsjövägen", "osm_type": "secondary", "osm_lanes": null, "osm_oneway": null, "osm_distance": 0.24312459732614675, "osm_maxspeed": 70.0, "osmid": 167053594.0 }, "geometry": { "type": "Point", "coordinates": [ 12.995270597400001, 55.511652992599998 ] } },
{ "type": "Feature", "properties": { "AADT": 6700, "TR_pct_AADT": 7.0, "raw_name": "HANS MICHELSENSGATAN", "raw_oneway": false, "osm_name": "Stora Varvsgatan", "osm_type": "tertiary", "osm_lanes": null, "osm_oneway": "True", "osm_distance": 3.4314362530574765, "osm_maxspeed": 40.0, "osmid": 1105562263.0 }, "geometry": { "type": "Point", "coordinates": [ 12.999322124117514, 55.612541986449301 ] } },
{ "type": "Feature", "properties": { "AADT": 8800, "TR_pct_AADT": 7.0, "raw_name": "HANS MICHELSENSGATAN", "raw_oneway": false, "osm_name": "Hans Michelsensgatan", "osm_type": "tertiary", "osm_lanes": 2.0, "osm_oneway": null, "osm_distance": 0.34325525406888141, "osm_maxspeed": 40.0, "osmid": 295159892.0 }, "geometry": { "type": "Point", "coordinates": [ 13.00136121565, 55.612243476299994 ] } },
{ "type": "Feature", "properties": { "AADT": 6700, "TR_pct_AADT": 10.0, "raw_name": "CARLSGATAN", "raw_oneway": false, "osm_name": "Carlsgatan", "osm_type": "tertiary", "osm_lanes": 2.0, "osm_oneway": "True", "osm_distance": 2.8350774617949464, "osm_maxspeed": 40.0, "osmid": 454355687.0 }, "geometry": { "type": "Point", "coordinates": [ 12.999757318058734, 55.610499727623186 ] } },
{ "type": "Feature", "properties": { "AADT": 3900, "TR_pct_AADT": 13.0, "raw_name": "HYLLIE BOULEVARD", "raw_oneway": false, "osm_name": "Hövdingevägen", "osm_type": "residential", "osm_lanes": 2.0, "osm_oneway": null, "osm_distance": 0.19809916144001663, "osm_maxspeed": 40.0, "osmid": 571066248.0 }, "geometry": { "type": "Point", "coordinates": [ 12.981846747600001, 55.554486070750002 ] } },
{ "type": "Feature", "properties": { "AADT": 5300, "TR_pct_AADT": 17.0, "raw_name": "ÄLVSBORGSBRON", "raw_oneway": false, "osm_name": "Älvsborgsbron", "osm_type": "tertiary", "osm_lanes": 3.0, "osm_oneway": null, "osm_distance": 1.478546976884306, "osm_maxspeed": 40.0, "osmid": 28302746.0 }, "geometry": { "type": "Point", "coordinates": [ 12.9960990935, 55.607285621850004 ] } },
{ "type": "Feature", "properties": { "AADT": 14200, "TR_pct_AADT": 6.0, "raw_name": "ÄRTHOLMSVÄGEN", "raw_oneway": false, "osm_name": "Ärtholmsvägen", "osm_type": "tertiary", "osm_lanes": null, "osm_oneway": null, "osm_distance": 0.13015067476442663, "osm_maxspeed": 40.0, "osmid": 269074345.0 }, "geometry": { "type": "Point", "coordinates": [ 12.98996623805, 55.575554539099997 ] } },
{ "type": "Feature", "properties": { "AADT": 2100, "TR_pct_AADT": 7.0, "raw_name": "JÖRGEN KOCKSGATAN", "raw_oneway": false, "osm_name": "Jörgen Kocksgatan", "osm_type": "unclassified", "osm_lanes": null, "osm_oneway": null, "osm_distance": 0.050340062715114549, "osm_maxspeed": 40.0, "osmid": 149413646.0 }, "geometry": { "type": "Point", "coordinates": [ 12.999204313149999, 55.611546347699999 ] } },
{ "type": "Feature", "properties": { "AADT": 3100, "TR_pct_AADT": 7.0, "raw_name": "JOHANNESLUSTGATAN", "raw_oneway": false, "osm_name": "Johanneslustgatan", "osm_type": "residential", "osm_lanes": null, "osm_oneway": null, "osm_distance": 1.5407874217117397, "osm_maxspeed": 40.0, "osmid": 149768765.0 }, "geometry": { "type": "Point", "coordinates": [ 13.05063462725, 55.605442636299998 ] } },
{ "type": "Feature", "properties": { "AADT": 5400, "TR_pct_AADT": 10.0, "raw_name": "JÖRGEN KOCKSGATAN", "raw_oneway": false, "osm_name": "Jörgen Kocksgatan", "osm_type": "unclassified", "osm_lanes": null, "osm_oneway": null, "osm_distance": 0.65435405555628168, "osm_maxspeed": 40.0, "osmid": 140312321.0 }, "geometry": { "type": "Point", "coordinates": [ 13.001088726900001, 55.611655203699996 ] } },
{ "type": "Feature", "properties": { "AADT": 7000, "TR_pct_AADT": 10.0, "raw_name": "FLYGFÄLTSVÄGEN", "raw_oneway": false, "osm_name": "Flygfältsvägen", "osm_type": "tertiary", "osm_lanes": 2.0, "osm_oneway": null, "osm_distance": 1.2106496253339016, "osm_maxspeed": 60.0, "osmid": 23618417.0 }, "geometry": { "type": "Point", "coordinates": [ 13.058232652, 55.598156389899998 ] } },
{ "type": "Feature", "properties": { "AADT": 1300, "TR_pct_AADT": 18.0, "raw_name": "ERIK DAHLBERGSGATAN", "raw_oneway": false, "osm_name": "Erik Dahlbergsgatan", "osm_type": "residential", "osm_lanes": null, "osm_oneway": null, "osm_distance": 0.47769294832905951, "osm_maxspeed": 40.0, "osmid": 223892128.0 }, "geometry": { "type": "Point", "coordinates": [ 12.995249824599998, 55.598450260450001 ] } },
{ "type": "Feature", "properties": { "AADT": 100, "TR_pct_AADT": 87.0, "raw_name": "PETRIBRON", "raw_oneway": false, "osm_name": "Petribron", "osm_type": "service", "osm_lanes": null, "osm_oneway": "True", "osm_distance": 0.51886348654131365, "osm_maxspeed": null, "osmid": 51078791.0 }, "geometry": { "type": "Point", "coordinates": [ 13.0021424381, 55.608399335149997 ] } },
{ "type": "Feature", "properties": { "AADT": 13100, "TR_pct_AADT": 13.0, "raw_name": "AMIRALSGATAN", "raw_oneway": false, "osm_name": "Amiralsgatan", "osm_type": "secondary", "osm_lanes": 4.0, "osm_oneway": null, "osm_distance": 0.086118994111411884, "osm_maxspeed": 40.0, "osmid": 295558467.0 }, "geometry": { "type": "Point", "coordinates": [ 13.0186087695, 55.5929928921 ] } },
{ "type": "Feature", "properties": { "AADT": 17900, "TR_pct_AADT": 10.0, "raw_name": "LUNDAVÄGEN", "raw_oneway": false, "osm_name": "Lundavägen", "osm_type": "secondary", "osm_lanes": 1.0, "osm_oneway": "True", "osm_distance": 6.231256491183383, "osm_maxspeed": 40.0, "osmid": 139768835.0 }, "geometry": { "type": "Point", "coordinates": [ 13.028807952511345, 55.607861285990296 ] } },
{ "type": "Feature", "properties": { "AADT": 12200, "TR_pct_AADT": 8.0, "raw_name": "LIMHAMNSVÄGEN", "raw_oneway": false, "osm_name": "Limhamnsvägen", "osm_type": "secondary", "osm_lanes": 2.0, "osm_oneway": null, "osm_distance": 0.32682544397206004, "osm_maxspeed": 40.0, "osmid": 40530482.0 }, "geometry": { "type": "Point", "coordinates": [ 12.956499766649999, 55.59714638965 ] } },
{ "type": "Feature", "properties": { "AADT": 10700, "TR_pct_AADT": 9.0, "raw_name": "JÄGERSROVÄGEN", "raw_oneway": false, "osm_name": "Jägersrovägen", "osm_type": "tertiary", "osm_lanes": 2.0, "osm_oneway": null, "osm_distance": 0.41587226786065223, "osm_maxspeed": 40.0, "osmid": 25045193.0 }, "geometry": { "type": "Point", "coordinates": [ 13.047697796550001, 55.574766537400009 ] } },
{ "type": "Feature", "properties": { "AADT": 4000, "TR_pct_AADT": 13.0, "raw_name": "KVARNBYVÄGEN", "raw_oneway": false, "osm_name": "Kvarnbyvägen", "osm_type": "tertiary", "osm_lanes": null, "osm_oneway": null, "osm_distance": 2.6763230396505082, "osm_maxspeed": 60.0, "osmid": 28612821.0 }, "geometry": { "type": "Point", "coordinates": [ 13.09616927075, 55.575053253299998 ] } },
{ "type": "Feature", "properties": { "AADT": 700, "TR_pct_AADT": 5.0, "raw_name": "SORGENFRIVÄGEN", "raw_oneway": false, "osm_name": "Sorgenfrivägen", "osm_type": "residential", "osm_lanes": null, "osm_oneway": "True", "osm_distance": 1.4419651893583008, "osm_maxspeed": 40.0, "osmid": 37183737.0 }, "geometry": { "type": "Point", "coordinates": [ 13.022197461299999, 55.596324141650001 ] } },
{ "type": "Feature", "properties": { "AADT": 3000, "TR_pct_AADT": 70.0, "raw_name": "RENÖGATAN", "raw_oneway": false, "osm_name": "Renögatan", "osm_type": "tertiary", "osm_lanes": null, "osm_oneway": null, "osm_distance": 3.8334313962054147, "osm_maxspeed": 60.0, "osmid": 165788040.0 }, "geometry": { "type": "Point", "coordinates": [ 13.01476279125, 55.628892976499998 ] } },
{ "type": "Feature", "properties": { "AADT": 15100, "TR_pct_AADT": 40.0, "raw_name": "SPILLEPENGSGATAN", "raw_oneway": false, "osm_name": "Spillepengsgatan", "osm_type": "tertiary", "osm_lanes": 2.0, "osm_oneway": "True", "osm_distance": 2.8142555264831959, "osm_maxspeed": 50.0, "osmid": 148489995.0 }, "geometry": { "type": "Point", "coordinates": [ 13.049118059500001, 55.627542087649999 ] } },
{ "type": "Feature", "properties": { "AADT": 8000, "TR_pct_AADT": 12.0, "raw_name": "BELLEVUEVÄGEN", "raw_oneway": false, "osm_name": "Bellevuevägen", "osm_type": "tertiary", "osm_lanes": 2.0, "osm_oneway": null, "osm_distance": 0.80585198683814363, "osm_maxspeed": 40.0, "osmid": 586404109.0 }, "geometry": { "type": "Point", "coordinates": [ 12.97220861155, 55.592076266399999 ] } },
{ "type": "Feature", "properties": { "AADT": 13300, "TR_pct_AADT": 9.0, "raw_name": "KALKBROTTSGATAN", "raw_oneway": false, "osm_name": "Kalkbrottsgatan", "osm_type": "secondary", "osm_lanes": null, "osm_oneway": "True", "osm_distance": 5.4496070175742499, "osm_maxspeed": 40.0, "osmid": 279245031.0 }, "geometry": { "type": "Point", "coordinates": [ 12.926095071534021, 55.576539939972456 ] } },
{ "type": "Feature", "properties": { "AADT": 9200, "TR_pct_AADT": 7.0, "raw_name": "AGNESFRIDSVÄGEN", "raw_oneway": false, "osm_name": "Agnesfridsvägen", "osm_type": "tertiary", "osm_lanes": 2.0, "osm_oneway": null, "osm_distance": 2.3864420460909681, "osm_maxspeed": 40.0, "osmid": 46126953.0 }, "geometry": { "type": "Point", "coordinates": [ 13.0639822819, 55.580403098749997 ] } },
{ "type": "Feature", "properties": { "AADT": 11400, "TR_pct_AADT": 8.0, "raw_name": "JÖRGEN KOCKSGATAN", "raw_oneway": false, "osm_name": "Jörgen Kocksgatan", "osm_type": "tertiary", "osm_lanes": 2.0, "osm_oneway": null, "osm_distance": 0.10871314912952838, "osm_maxspeed": 40.0, "osmid": 295159897.0 }, "geometry": { "type": "Point", "coordinates": [ 13.012523208649998, 55.612495988400006 ] } },
{ "type": "Feature", "properties": { "AADT": 3900, "TR_pct_AADT": 7.0, "raw_name": "HYLLIE BOULEVARD", "raw_oneway": false, "osm_name": "Hyllie boulevard", "osm_type": "residential", "osm_lanes": 2.0, "osm_oneway": null, "osm_distance": 0.74359696876070347, "osm_maxspeed": 40.0, "osmid": 645439211.0 }, "geometry": { "type": "Point", "coordinates": [ 12.976476645049999, 55.569830687600003 ] } },
{ "type": "Feature", "properties": { "AADT": 9100, "TR_pct_AADT": 12.0, "raw_name": "GRIMSBYGATAN", "raw_oneway": false, "osm_name": "Grimsbygatan", "osm_type": "unclassified", "osm_lanes": null, "osm_oneway": null, "osm_distance": 0.16309605113419948, "osm_maxspeed": 40.0, "osmid": 28480291.0 }, "geometry": { "type": "Point", "coordinates": [ 13.016255034450001, 55.613330232199999 ] } },
{ "type": "Feature", "properties": { "AADT": 1400, "TR_pct_AADT": 14.0, "raw_name": "GRIMSBYGATAN", "raw_oneway": false, "osm_name": "Grimsbygatan", "osm_type": "unclassified", "osm_lanes": null, "osm_oneway": null, "osm_distance": 0.073798983085306399, "osm_maxspeed": 40.0, "osmid": 1105562233.0 }, "geometry": { "type": "Point", "coordinates": [ 13.013291372549684, 55.61315936239896 ] } },
{ "type": "Feature", "properties": { "AADT": 800, "TR_pct_AADT": 5.0, "raw_name": "SPÅNEHUSVÄGEN", "raw_oneway": false, "osm_name": "Spånehusvägen", "osm_type": "residential", "osm_lanes": 2.0, "osm_oneway": null, "osm_distance": 0.1671514050342062, "osm_maxspeed": 40.0, "osmid": 55355665.0 }, "geometry": { "type": "Point", "coordinates": [ 13.017918207649997, 55.595443882499993 ] } },
{ "type": "Feature", "properties": { "AADT": 7700, "TR_pct_AADT": 7.0, "raw_name": "KALKBROTTSGATAN", "raw_oneway": false, "osm_name": "Kalkbrottsgatan", "osm_type": "tertiary", "osm_lanes": 1.0, "osm_oneway": "True", "osm_distance": 2.1911392934804255, "osm_maxspeed": 40.0, "osmid": 211930409.0 }, "geometry": { "type": "Point", "coordinates": [ 12.924754807739612, 55.575508992670365 ] } },
{ "type": "Feature", "properties": { "AADT": 2000, "TR_pct_AADT": 15.0, "raw_name": "PÅSKLILJEGATAN", "raw_oneway": false, "osm_name": "Påskliljegatan", "osm_type": "residential", "osm_lanes": null, "osm_oneway": null, "osm_distance": 0.26363975489272146, "osm_maxspeed": 40.0, "osmid": 40268527.0 }, "geometry": { "type": "Point", "coordinates": [ 12.984443274149999, 55.56921605 ] } },
{ "type": "Feature", "properties": { "AADT": 14000, "TR_pct_AADT": 7.0, "raw_name": "AMIRALSBRON", "raw_oneway": false, "osm_name": "Amiralsbron", "osm_type": "residential", "osm_lanes": 5.0, "osm_oneway": null, "osm_distance": 0.54566107496120064, "osm_maxspeed": 40.0, "osmid": 22948224.0 }, "geometry": { "type": "Point", "coordinates": [ 13.00550007665, 55.602366561750003 ] } },
{ "type": "Feature", "properties": { "AADT": 100, "TR_pct_AADT": 13.0, "raw_name": "MÄSTER ERIKS PLAN", "raw_oneway": false, "osm_name": "Mäster Eriks plan", "osm_type": "residential", "osm_lanes": null, "osm_oneway": null, "osm_distance": 0.44000383808484861, "osm_maxspeed": 40.0, "osmid": 28417812.0 }, "geometry": { "type": "Point", "coordinates": [ 13.017876320099999, 55.596219511850002 ] } },
{ "type": "Feature", "properties": { "AADT": 1100, "TR_pct_AADT": 4.0, "raw_name": "TYELSEVÄGEN", "raw_oneway": false, "osm_name": "Tyelsevägen", "osm_type": "residential", "osm_lanes": null, "osm_oneway": null, "osm_distance": 0.3551901575602554, "osm_maxspeed": null, "osmid": 28274336.0 }, "geometry": { "type": "Point", "coordinates": [ 12.998385937649999, 55.516846809699999 ] } },
{ "type": "Feature", "properties": { "AADT": 600, "TR_pct_AADT": 9.0, "raw_name": "MÄSTER DANIELSGATAN", "raw_oneway": false, "osm_name": "Mäster Danielsgatan", "osm_type": "residential", "osm_lanes": null, "osm_oneway": null, "osm_distance": 0.60434051963576019, "osm_maxspeed": 40.0, "osmid": 163054865.0 }, "geometry": { "type": "Point", "coordinates": [ 13.015953051649999, 55.596342843949998 ] } },
{ "type": "Feature", "properties": { "AADT": 18700, "TR_pct_AADT": 11.0, "raw_name": "AMIRALSGATAN", "raw_oneway": false, "osm_name": "Amiralsgatan", "osm_type": "secondary", "osm_lanes": 2.0, "osm_oneway": "True", "osm_distance": 3.4216932437061285, "osm_maxspeed": 40.0, "osmid": 36986968.0 }, "geometry": { "type": "Point", "coordinates": [ 13.03064080415, 55.590040923899998 ] } },
{ "type": "Feature", "properties": { "AADT": 4800, "TR_pct_AADT": 12.0, "raw_name": "ELLENBORGSVÄGEN", "raw_oneway": false, "osm_name": "Ellenborgsvägen", "osm_type": "tertiary", "osm_lanes": null, "osm_oneway": null, "osm_distance": 0.28560565974634761, "osm_maxspeed": 40.0, "osmid": 141654183.0 }, "geometry": { "type": "Point", "coordinates": [ 13.0638361892, 55.586031557550001 ] } },
{ "type": "Feature", "properties": { "AADT": 25500, "TR_pct_AADT": 15.0, "raw_name": "YSTADVÄGEN", "raw_oneway": false, "osm_name": "Ystadvägen", "osm_type": "secondary", "osm_lanes": 2.0, "osm_oneway": "True", "osm_distance": 4.5588018710263674, "osm_maxspeed": 60.0, "osmid": 23440479.0 }, "geometry": { "type": "Point", "coordinates": [ 13.040911096134625, 55.570985504549149 ] } },
{ "type": "Feature", "properties": { "AADT": 12800, "TR_pct_AADT": 10.0, "raw_name": "KÄGLINGEVÄGEN", "raw_oneway": false, "osm_name": "Käglingevägen", "osm_type": "secondary", "osm_lanes": 2.0, "osm_oneway": null, "osm_distance": 1.2896953340935033, "osm_maxspeed": 60.0, "osmid": 269006300.0 }, "geometry": { "type": "Point", "coordinates": [ 13.05932712035, 55.560503044949996 ] } },
{ "type": "Feature", "properties": { "AADT": 200, "TR_pct_AADT": 4.0, "raw_name": "LJUNGHOLMSGATAN", "raw_oneway": false, "osm_name": "Ljungholmsgatan", "osm_type": "residential", "osm_lanes": null, "osm_oneway": null, "osm_distance": 0.04964060409417468, "osm_maxspeed": 40.0, "osmid": 28499010.0 }, "geometry": { "type": "Point", "coordinates": [ 13.033704338450001, 55.566954857299997 ] } },
{ "type": "Feature", "properties": { "AADT": 300, "TR_pct_AADT": 4.0, "raw_name": "FOSIE KYRKOVÄG", "raw_oneway": false, "osm_name": "Fosie kyrkoväg", "osm_type": "residential", "osm_lanes": null, "osm_oneway": null, "osm_distance": 0.31717078671187776, "osm_maxspeed": 40.0, "osmid": 28498906.0 }, "geometry": { "type": "Point", "coordinates": [ 13.0338389469, 55.566614984700003 ] } },
{ "type": "Feature", "properties": { "AADT": 800, "TR_pct_AADT": 5.0, "raw_name": "BECKASINGATAN", "raw_oneway": false, "osm_name": "Beckasingatan", "osm_type": "residential", "osm_lanes": null, "osm_oneway": null, "osm_distance": 0.40266039993302505, "osm_maxspeed": 40.0, "osmid": 28535231.0 }, "geometry": { "type": "Point", "coordinates": [ 13.010763286, 55.574630184599997 ] } },
{ "type": "Feature", "properties": { "AADT": 2000, "TR_pct_AADT": 8.0, "raw_name": "DJURHAGEGATAN", "raw_oneway": false, "osm_name": "Djurhagegatan", "osm_type": "unclassified", "osm_lanes": null, "osm_oneway": null, "osm_distance": 0.67911806073308201, "osm_maxspeed": null, "osmid": 31058263.0 }, "geometry": { "type": "Point", "coordinates": [ 13.061122073549999, 55.559675517700001 ] } },
{ "type": "Feature", "properties": { "AADT": 1000, "TR_pct_AADT": 4.0, "raw_name": "SÖDRA PROMENADEN", "raw_oneway": false, "osm_name": "Södra Promenaden", "osm_type": "residential", "osm_lanes": null, "osm_oneway": null, "osm_distance": 0.43472889428534112, "osm_maxspeed": 40.0, "osmid": 27685046.0 }, "geometry": { "type": "Point", "coordinates": [ 13.010581053800001, 55.6044639777 ] } },
{ "type": "Feature", "properties": { "AADT": 3600, "TR_pct_AADT": 6.0, "raw_name": "DANSKA VÄGEN", "raw_oneway": false, "osm_name": "Danska vägen", "osm_type": "residential", "osm_lanes": 2.0, "osm_oneway": null, "osm_distance": 2.1361149376662962, "osm_maxspeed": 40.0, "osmid": 232237391.0 }, "geometry": { "type": "Point", "coordinates": [ 13.037402595149999, 55.594152374949999 ] } },
{ "type": "Feature", "properties": { "AADT": 7100, "TR_pct_AADT": 25.0, "raw_name": "FLINTRÄNNEGATAN", "raw_oneway": false, "osm_name": "Flintrännegatan", "osm_type": "tertiary", "osm_lanes": 4.0, "osm_oneway": null, "osm_distance": 0.16194689385382005, "osm_maxspeed": 60.0, "osmid": 223889261.0 }, "geometry": { "type": "Point", "coordinates": [ 13.039002970249999, 55.61801402215 ] } },
{ "type": "Feature", "properties": { "AADT": 3100, "TR_pct_AADT": 15.0, "raw_name": "STAFFANSTORPSVÄGEN", "raw_oneway": false, "osm_name": "Staffanstorpsvägen", "osm_type": "unclassified", "osm_lanes": 2.0, "osm_oneway": null, "osm_distance": 0.86646560439743303, "osm_maxspeed": null, "osmid": 51851869.0 }, "geometry": { "type": "Point", "coordinates": [ 13.08462659205, 55.611292845199998 ] } },
{ "type": "Feature", "properties": { "AADT": 900, "TR_pct_AADT": 13.0, "raw_name": "FALSTERBOGATAN", "raw_oneway": false, "osm_name": "Falsterbogatan", "osm_type": "residential", "osm_lanes": null, "osm_oneway": null, "osm_distance": 1.7574187142404889, "osm_maxspeed": 40.0, "osmid": 28417352.0 }, "geometry": { "type": "Point", "coordinates": [ 13.014843190350001, 55.591603660000011 ] } },
{ "type": "Feature", "properties": { "AADT": 2600, "TR_pct_AADT": 5.0, "raw_name": "PAULIBRON", "raw_oneway": false, "osm_name": "Paulibron", "osm_type": "residential", "osm_lanes": null, "osm_oneway": null, "osm_distance": 0.35284565753411135, "osm_maxspeed": 40.0, "osmid": 28289456.0 }, "geometry": { "type": "Point", "coordinates": [ 13.0106022126, 55.604047157 ] } },
{ "type": "Feature", "properties": { "AADT": 11400, "TR_pct_AADT": 13.0, "raw_name": "VATTENVERKSVÄGEN", "raw_oneway": false, "osm_name": "Vattenverksvägen", "osm_type": "tertiary", "osm_lanes": 2.0, "osm_oneway": null, "osm_distance": 0.17397979167307584, "osm_maxspeed": 40.0, "osmid": 270124690.0 }, "geometry": { "type": "Point", "coordinates": [ 13.064457039800001, 55.609901579750002 ] } },
{ "type": "Feature", "properties": { "AADT": 800, "TR_pct_AADT": 10.0, "raw_name": "TRELLEBORGSGATAN", "raw_oneway": false, "osm_name": "Trelleborgsgatan", "osm_type": "residential", "osm_lanes": null, "osm_oneway": null, "osm_distance": 0.8408237982060387, "osm_maxspeed": 40.0, "osmid": 28416742.0 }, "geometry": { "type": "Point", "coordinates": [ 13.017771790449999, 55.591700815799996 ] } },
{ "type": "Feature", "properties": { "AADT": 900, "TR_pct_AADT": 12.0, "raw_name": "SIMRISHAMNSGATAN", "raw_oneway": false, "osm_name": "Simrishamnsgatan", "osm_type": "residential", "osm_lanes": null, "osm_oneway": null, "osm_distance": 0.33073794186546074, "osm_maxspeed": 40.0, "osmid": 264281922.0 }, "geometry": { "type": "Point", "coordinates": [ 13.015993936899999, 55.590546878799998 ] } },
{ "type": "Feature", "properties": { "AADT": 3100, "TR_pct_AADT": 5.0, "raw_name": "YSTADSGATAN", "raw_oneway": false, "osm_name": "Ystadsgatan", "osm_type": "residential", "osm_lanes": null, "osm_oneway": null, "osm_distance": 1.1612179816551231, "osm_maxspeed": 40.0, "osmid": 1304052811.0 }, "geometry": { "type": "Point", "coordinates": [ 13.0145285071, 55.590051506 ] } },
{ "type": "Feature", "properties": { "AADT": 51300, "TR_pct_AADT": 17.0, "raw_name": "YTTRE RINGVÄGEN", "raw_oneway": false, "osm_name": "Yttre Ringvägen", "osm_type": "motorway", "osm_lanes": 3.0, "osm_oneway": "True", "osm_distance": 16.000151906469323, "osm_maxspeed": 110.0, "osmid": 1189107508.0 }, "geometry": { "type": "Point", "coordinates": [ 13.116127288318623, 55.607003012953179 ] } },
{ "type": "Feature", "properties": { "AADT": 7200, "TR_pct_AADT": 5.0, "raw_name": "CARL GUSTAFS VÄG", "raw_oneway": false, "osm_name": "Carl Gustafs väg", "osm_type": "tertiary", "osm_lanes": 2.0, "osm_oneway": null, "osm_distance": 0.51037265495547801, "osm_maxspeed": 40.0, "osmid": 139667349.0 }, "geometry": { "type": "Point", "coordinates": [ 12.996703211749999, 55.592663209400001 ] } },
{ "type": "Feature", "properties": { "AADT": 13700, "TR_pct_AADT": 11.0, "raw_name": "LÖNNGATAN", "raw_oneway": false, "osm_name": "Lönngatan", "osm_type": "tertiary", "osm_lanes": 2.0, "osm_oneway": null, "osm_distance": 0.74146816182721009, "osm_maxspeed": 40.0, "osmid": 1196741311.0 }, "geometry": { "type": "Point", "coordinates": [ 13.0263823871, 55.581443104599998 ] } },
{ "type": "Feature", "properties": { "AADT": 13000, "TR_pct_AADT": 7.0, "raw_name": "MUNKHÄTTEGATAN", "raw_oneway": false, "osm_name": "Munkhättegatan", "osm_type": "secondary", "osm_lanes": null, "osm_oneway": "True", "osm_distance": 5.077667740807005, "osm_maxspeed": 30.0, "osmid": 28535585.0 }, "geometry": { "type": "Point", "coordinates": [ 13.009861255222159, 55.564570473858488 ] } },
{ "type": "Feature", "properties": { "AADT": 800, "TR_pct_AADT": 6.0, "raw_name": "MÖLLEDALSGATAN", "raw_oneway": false, "osm_name": "Mölledalsgatan", "osm_type": "unclassified", "osm_lanes": null, "osm_oneway": null, "osm_distance": 0.1531409417572098, "osm_maxspeed": null, "osmid": 46135522.0 }, "geometry": { "type": "Point", "coordinates": [ 13.051103896899999, 55.605656216200003 ] } },
{ "type": "Feature", "properties": { "AADT": 9500, "TR_pct_AADT": 8.0, "raw_name": "KÄGLINGEVÄGEN", "raw_oneway": false, "osm_name": "Käglingevägen", "osm_type": "secondary", "osm_lanes": 1.0, "osm_oneway": "True", "osm_distance": 0.44176878802439123, "osm_maxspeed": 60.0, "osmid": 295308488.0 }, "geometry": { "type": "Point", "coordinates": [ 13.064069836750001, 55.554966576199995 ] } },
{ "type": "Feature", "properties": { "AADT": 12400, "TR_pct_AADT": 6.0, "raw_name": "STADIONGATAN", "raw_oneway": false, "osm_name": "Stadiongatan", "osm_type": "secondary", "osm_lanes": 2.0, "osm_oneway": null, "osm_distance": 0.15830637858281571, "osm_maxspeed": 40.0, "osmid": 35261314.0 }, "geometry": { "type": "Point", "coordinates": [ 12.99450962615, 55.580313251450001 ] } },
{ "type": "Feature", "properties": { "AADT": 1100, "TR_pct_AADT": 6.0, "raw_name": "NORRA BULLTOFTAVÄGEN", "raw_oneway": false, "osm_name": "Norra Bulltoftavägen", "osm_type": "unclassified", "osm_lanes": 2.0, "osm_oneway": null, "osm_distance": 1.2584531400437773, "osm_maxspeed": null, "osmid": 28438049.0 }, "geometry": { "type": "Point", "coordinates": [ 13.047276936700001, 55.609223319849995 ] } },
{ "type": "Feature", "properties": { "AADT": 15100, "TR_pct_AADT": 11.0, "raw_name": "NEPTUNIBRON", "raw_oneway": false, "osm_name": "Neptunigatan", "osm_type": "tertiary", "osm_lanes": null, "osm_oneway": "True", "osm_distance": 3.9480498269472286, "osm_maxspeed": 40.0, "osmid": 694011976.0 }, "geometry": { "type": "Point", "coordinates": [ 12.984985314672166, 55.60745705082396 ] } },
{ "type": "Feature", "properties": { "AADT": 7300, "TR_pct_AADT": 6.0, "raw_name": "EXERCISGATAN", "raw_oneway": false, "osm_name": "Exercisgatan", "osm_type": "residential", "osm_lanes": 2.0, "osm_oneway": null, "osm_distance": 0.53085625250696311, "osm_maxspeed": 40.0, "osmid": 334672927.0 }, "geometry": { "type": "Point", "coordinates": [ 13.01375847035, 55.608351495450002 ] } },
{ "type": "Feature", "properties": { "AADT": 3700, "TR_pct_AADT": 68.0, "raw_name": "HEMSÖGATAN", "raw_oneway": false, "osm_name": "Hemsögatan", "osm_type": "tertiary", "osm_lanes": null, "osm_oneway": null, "osm_distance": 0.29514591504892751, "osm_maxspeed": 60.0, "osmid": 141614523.0 }, "geometry": { "type": "Point", "coordinates": [ 13.017040691150001, 55.628060160800004 ] } },
{ "type": "Feature", "properties": { "AADT": 14300, "TR_pct_AADT": 6.0, "raw_name": "LANTMANNAGATAN", "raw_oneway": false, "osm_name": "Lantmannagatan", "osm_type": "tertiary", "osm_lanes": 4.0, "osm_oneway": null, "osm_distance": 1.8383105035225131, "osm_maxspeed": 40.0, "osmid": 226873730.0 }, "geometry": { "type": "Point", "coordinates": [ 13.01975331355, 55.580627380199999 ] } },
{ "type": "Feature", "properties": { "AADT": 700, "TR_pct_AADT": 9.0, "raw_name": "MONBIJOUGATAN", "raw_oneway": false, "osm_name": "Monbijougatan", "osm_type": "residential", "osm_lanes": null, "osm_oneway": null, "osm_distance": 0.43586900577289034, "osm_maxspeed": 40.0, "osmid": 29791724.0 }, "geometry": { "type": "Point", "coordinates": [ 13.009067818149999, 55.595153394950003 ] } },
{ "type": "Feature", "properties": { "AADT": 500, "TR_pct_AADT": 8.0, "raw_name": "BARKGATAN", "raw_oneway": false, "osm_name": "Barkgatan", "osm_type": "residential", "osm_lanes": null, "osm_oneway": null, "osm_distance": 0.122828871354753, "osm_maxspeed": 40.0, "osmid": 106948205.0 }, "geometry": { "type": "Point", "coordinates": [ 13.008513928799999, 55.59384552425 ] } },
{ "type": "Feature", "properties": { "AADT": 300, "TR_pct_AADT": 6.0, "raw_name": "PLANTGATAN", "raw_oneway": false, "osm_name": "Plantgatan", "osm_type": "residential", "osm_lanes": null, "osm_oneway": null, "osm_distance": 0.87261614337490312, "osm_maxspeed": 40.0, "osmid": 28416976.0 }, "geometry": { "type": "Point", "coordinates": [ 13.0132069671, 55.588902333549996 ] } },
{ "type": "Feature", "properties": { "AADT": 2000, "TR_pct_AADT": 9.0, "raw_name": "MÖLLEVÅNGSGATAN", "raw_oneway": false, "osm_name": "Möllevångsgatan", "osm_type": "residential", "osm_lanes": null, "osm_oneway": null, "osm_distance": 0.83930600370138397, "osm_maxspeed": 40.0, "osmid": 10498348.0 }, "geometry": { "type": "Point", "coordinates": [ 13.00728027645, 55.593335862949999 ] } },
{ "type": "Feature", "properties": { "AADT": 1400, "TR_pct_AADT": 33.0, "raw_name": "BLIDÖGATAN", "raw_oneway": false, "osm_name": "Blidögatan", "osm_type": "unclassified", "osm_lanes": null, "osm_oneway": null, "osm_distance": 0.31182819250030758, "osm_maxspeed": 60.0, "osmid": 28191441.0 }, "geometry": { "type": "Point", "coordinates": [ 13.045428506449998, 55.627381362850002 ] } },
{ "type": "Feature", "properties": { "AADT": 8800, "TR_pct_AADT": 8.0, "raw_name": "PETERSBORGS TRAFIKPLATS", "raw_oneway": false, "osm_name": null, "osm_type": "motorway_link", "osm_lanes": 2.0, "osm_oneway": "True", "osm_distance": 0.28652029808311702, "osm_maxspeed": 110.0, "osmid": 301812679.0 }, "geometry": { "type": "Point", "coordinates": [ 13.001409026800001, 55.550702395899997 ] } },
{ "type": "Feature", "properties": { "AADT": 20100, "TR_pct_AADT": 12.0, "raw_name": "INRE RINGVÄGEN", "raw_oneway": false, "osm_name": null, "osm_type": "motorway_link", "osm_lanes": 1.0, "osm_oneway": "True", "osm_distance": 10.084461762083274, "osm_maxspeed": 70.0, "osmid": 28274405.0 }, "geometry": { "type": "Point", "coordinates": [ 13.027732241087193, 55.561563439591431 ] } },
{ "type": "Feature", "properties": { "AADT": 1900, "TR_pct_AADT": 8.0, "raw_name": "LILLA VARVSGATAN", "raw_oneway": false, "osm_name": "Lilla Varvsgatan", "osm_type": "residential", "osm_lanes": null, "osm_oneway": "True", "osm_distance": 1.0795284876885267, "osm_maxspeed": 40.0, "osmid": 24557246.0 }, "geometry": { "type": "Point", "coordinates": [ 12.977670308531573, 55.613182191002743 ] } },
{ "type": "Feature", "properties": { "AADT": 22300, "TR_pct_AADT": 13.0, "raw_name": "KÄGLINGEVÄGEN", "raw_oneway": false, "osm_name": "Käglingevägen", "osm_type": "secondary", "osm_lanes": 2.0, "osm_oneway": null, "osm_distance": 0.03707595412336858, "osm_maxspeed": 60.0, "osmid": 28758410.0 }, "geometry": { "type": "Point", "coordinates": [ 13.0574387952, 55.56442213255 ] } },
{ "type": "Feature", "properties": { "AADT": 14300, "TR_pct_AADT": 9.0, "raw_name": "NOBELVÄGEN", "raw_oneway": false, "osm_name": "Nobelvägen", "osm_type": "secondary", "osm_lanes": 2.0, "osm_oneway": "True", "osm_distance": 3.930704126473842, "osm_maxspeed": 40.0, "osmid": 389936833.0 }, "geometry": { "type": "Point", "coordinates": [ 13.019865904850001, 55.592805524200003 ] } },
{ "type": "Feature", "properties": { "AADT": 7500, "TR_pct_AADT": 6.0, "raw_name": "TYGELSJÖVÄGEN", "raw_oneway": false, "osm_name": "Tygelsjövägen", "osm_type": "secondary", "osm_lanes": 2.0, "osm_oneway": null, "osm_distance": 1.7202342265578725, "osm_maxspeed": 40.0, "osmid": 52074464.0 }, "geometry": { "type": "Point", "coordinates": [ 12.996138832, 55.527616299900004 ] } },
{ "type": "Feature", "properties": { "AADT": 3800, "TR_pct_AADT": 5.0, "raw_name": "ANNETORPSVÄGEN", "raw_oneway": false, "osm_name": null, "osm_type": "primary_link", "osm_lanes": 1.0, "osm_oneway": "True", "osm_distance": 0.071142731817190871, "osm_maxspeed": 90.0, "osmid": 52348172.0 }, "geometry": { "type": "Point", "coordinates": [ 12.974956211549998, 55.568071852700001 ] } },
{ "type": "Feature", "properties": { "AADT": 18700, "TR_pct_AADT": 7.0, "raw_name": "MARIEDALSVÄGEN", "raw_oneway": false, "osm_name": "Mariedalsvägen", "osm_type": "secondary", "osm_lanes": 2.0, "osm_oneway": null, "osm_distance": 1.1812181958161918, "osm_maxspeed": 40.0, "osmid": 23654581.0 }, "geometry": { "type": "Point", "coordinates": [ 12.983536191900001, 55.589639782299997 ] } },
{ "type": "Feature", "properties": { "AADT": 2100, "TR_pct_AADT": 8.0, "raw_name": "SLOTTSBRON", "raw_oneway": false, "osm_name": "Malmöhusvägen", "osm_type": "unclassified", "osm_lanes": null, "osm_oneway": null, "osm_distance": 0.19835268956969687, "osm_maxspeed": 40.0, "osmid": 28289459.0 }, "geometry": { "type": "Point", "coordinates": [ 12.99018846055, 55.605199097700002 ] } },
{ "type": "Feature", "properties": { "AADT": 14200, "TR_pct_AADT": 13.0, "raw_name": "SÖDRA FÖRSTADSGATAN", "raw_oneway": false, "osm_name": "Södra Förstadsgatan", "osm_type": "tertiary", "osm_lanes": 2.0, "osm_oneway": "True", "osm_distance": 3.1831394035651162, "osm_maxspeed": 40.0, "osmid": 268468398.0 }, "geometry": { "type": "Point", "coordinates": [ 13.005890020561321, 55.585102132994173 ] } },
{ "type": "Feature", "properties": { "AADT": 13200, "TR_pct_AADT": 16.0, "raw_name": "LUNDAVÄGEN", "raw_oneway": false, "osm_name": "Lundavägen", "osm_type": "secondary", "osm_lanes": 1.0, "osm_oneway": "True", "osm_distance": 3.433899206859071, "osm_maxspeed": 40.0, "osmid": 139768835.0 }, "geometry": { "type": "Point", "coordinates": [ 13.032313069879649, 55.609517045440107 ] } },
{ "type": "Feature", "properties": { "AADT": 2900, "TR_pct_AADT": 17.0, "raw_name": "BOPLATSGATAN", "raw_oneway": false, "osm_name": "Boplatsgatan", "osm_type": "unclassified", "osm_lanes": null, "osm_oneway": null, "osm_distance": 0.57550001723449384, "osm_maxspeed": null, "osmid": 269006283.0 }, "geometry": { "type": "Point", "coordinates": [ 13.058785145550003, 55.562224234799999 ] } },
{ "type": "Feature", "properties": { "AADT": 11100, "TR_pct_AADT": 8.0, "raw_name": "FERSENS BRO", "raw_oneway": false, "osm_name": "Fersens bro", "osm_type": "secondary", "osm_lanes": 3.0, "osm_oneway": null, "osm_distance": 2.112141828075508, "osm_maxspeed": 40.0, "osmid": 28302737.0 }, "geometry": { "type": "Point", "coordinates": [ 12.9951989627, 55.601650036550005 ] } },
{ "type": "Feature", "properties": { "AADT": 2300, "TR_pct_AADT": 10.0, "raw_name": "PER JOSEPHSSONS VÄG", "raw_oneway": false, "osm_name": "Per Josephssons väg", "osm_type": "residential", "osm_lanes": null, "osm_oneway": null, "osm_distance": 1.7720314308205796, "osm_maxspeed": null, "osmid": 211933388.0 }, "geometry": { "type": "Point", "coordinates": [ 12.9276513966, 55.544218675700002 ] } },
{ "type": "Feature", "properties": { "AADT": 10900, "TR_pct_AADT": 6.0, "raw_name": "MUNKHÄTTEGATAN", "raw_oneway": false, "osm_name": "Munkhättegatan", "osm_type": "tertiary", "osm_lanes": 2.0, "osm_oneway": "True", "osm_distance": 4.3105226004849646, "osm_maxspeed": 40.0, "osmid": 46136128.0 }, "geometry": { "type": "Point", "coordinates": [ 13.009279612990207, 55.563449616169549 ] } },
{ "type": "Feature", "properties": { "AADT": 400, "TR_pct_AADT": 6.0, "raw_name": "HAMMARS PARKVÄG (SÖDRA DELEN)", "raw_oneway": false, "osm_name": "Hammars parkväg", "osm_type": "residential", "osm_lanes": null, "osm_oneway": null, "osm_distance": 0.14513448546844718, "osm_maxspeed": 40.0, "osmid": 31619730.0 }, "geometry": { "type": "Point", "coordinates": [ 12.9217278067, 55.569056512749995 ] } },
{ "type": "Feature", "properties": { "AADT": 2700, "TR_pct_AADT": 20.0, "raw_name": "RÅVÄGEN", "raw_oneway": false, "osm_name": "Råvägen", "osm_type": "tertiary", "osm_lanes": null, "osm_oneway": null, "osm_distance": 0.082032734981474384, "osm_maxspeed": 70.0, "osmid": 295678728.0 }, "geometry": { "type": "Point", "coordinates": [ 13.025543728600001, 55.529804200199997 ] } }
]
}
