{
"type": "FeatureCollection",
"name": "Bordeaux_AAWT_2023",
"crs": { "type": "name", "properties": { "name": "urn:ogc:def:crs:OGC:1.3:CRS84" } },
"features": [
{ "type": "Feature", "properties": { "AAWT": 5381.0, "TR_AAWT": 449.0, "savg": 35.0, "raw_name": "Bordeaux Rue Bethmann Bx II", "raw_oneway": true, "raw_direction": "Sens Entrant", "raw_techno": "SIREDO", "osm_name": "Rue de Bethmann", "osm_type": "tertiary", "osm_lanes": null, "osm_oneway": null, "osm_distance": 1.9013630270681587, "osm_maxspeed": 50.0, "osmid": 283598054.0 }, "geometry": { "type": "Point", "coordinates": [ -0.606054, 44.8222163 ] } },
{ "type": "Feature", "properties": { "AAWT": 3922.0, "TR_AAWT": null, "savg": null, "raw_name": "Bordeaux 245 Rue du Tondu", "raw_oneway": true, "raw_direction": "Sens Entrant", "raw_techno": "BOUCLE", "osm_name": "Rue du Tondu", "osm_type": "tertiary", "osm_lanes": null, "osm_oneway": "True", "osm_distance": 0.33663335606557554, "osm_maxspeed": 30.0, "osmid": 25860630.0 }, "geometry": { "type": "Point", "coordinates": [ -0.5920619, 44.8275412 ] } },
{ "type": "Feature", "properties": { "AAWT": 4439.0, "TR_AAWT": null, "savg": null, "raw_name": "Talence Rue Vieille Tour après Lavoisier", "raw_oneway": true, "raw_direction": "Sens Entrant", "raw_techno": "BOUCLE", "osm_name": "Avenue de la Vieille Tour", "osm_type": "tertiary", "osm_lanes": null, "osm_oneway": "False", "osm_distance": 1.1125538137114002, "osm_maxspeed": null, "osmid": 442211139.0 }, "geometry": { "type": "Point", "coordinates": [ -0.6005876, 44.8151757 ] } },
{ "type": "Feature", "properties": { "AAWT": 8463.0, "TR_AAWT": null, "savg": null, "raw_name": "Bordeaux Béchade après giratoire", "raw_oneway": true, "raw_direction": "Sens Sortant", "raw_techno": "BOUCLE", "osm_name": "Rue de la Béchade", "osm_type": "tertiary", "osm_lanes": null, "osm_oneway": "False", "osm_distance": 0.68084499915175767, "osm_maxspeed": null, "osmid": 373868911.0 }, "geometry": { "type": "Point", "coordinates": [ -0.5988967, 44.8249089 ] } },
{ "type": "Feature", "properties": { "AAWT": 9078.0, "TR_AAWT": null, "savg": null, "raw_name": "Bordeaux Tauzin avant rue Haut Brion", "raw_oneway": true, "raw_direction": "Sens Sortant", "raw_techno": "BOUCLE", "osm_name": "Rue du Tauzin", "osm_type": "tertiary", "osm_lanes": 4.0, "osm_oneway": null, "osm_distance": 0.86855474963921453, "osm_maxspeed": 50.0, "osmid": 459591666.0 }, "geometry": { "type": "Point", "coordinates": [ -0.6013777, 44.8221412 ] } },
{ "type": "Feature", "properties": { "AAWT": 11574.0, "TR_AAWT": null, "savg": null, "raw_name": "Bordeaux Blvd Roosevelt avant Jaurès", "raw_oneway": true, "raw_direction": "Sud > Nord", "raw_techno": "BOUCLE", "osm_name": "Boulevard du Président Franklin Roosevelt", "osm_type": "primary", "osm_lanes": 2.0, "osm_oneway": "True", "osm_distance": 0.11796389620410394, "osm_maxspeed": 50.0, "osmid": 590831289.0 }, "geometry": { "type": "Point", "coordinates": [ -0.5741, 44.8157049 ] } },
{ "type": "Feature", "properties": { "AAWT": 4718.0, "TR_AAWT": null, "savg": null, "raw_name": "Bordeaux Rue Brun", "raw_oneway": true, "raw_direction": "Boulevards > Somme", "raw_techno": "BOUCLE", "osm_name": "Rue Brun", "osm_type": "residential", "osm_lanes": null, "osm_oneway": "True", "osm_distance": 0.28525915070683694, "osm_maxspeed": 30.0, "osmid": 1358353511.0 }, "geometry": { "type": "Point", "coordinates": [ -0.5754863, 44.8170151 ] } },
{ "type": "Feature", "properties": { "AAWT": 4679.0, "TR_AAWT": null, "savg": null, "raw_name": "Talence Cours Gambetta après Pt SNCF", "raw_oneway": true, "raw_direction": "Sens Sortant", "raw_techno": "BOUCLE", "osm_name": "Cours Gambetta", "osm_type": "secondary", "osm_lanes": 1.0, "osm_oneway": "True", "osm_distance": 0.1368835398685147, "osm_maxspeed": null, "osmid": 22752234.0 }, "geometry": { "type": "Point", "coordinates": [ -0.5856086, 44.8172041 ] } },
{ "type": "Feature", "properties": { "AAWT": 5036.0, "TR_AAWT": null, "savg": null, "raw_name": "Talence Cours Gambetta après Roustaing", "raw_oneway": true, "raw_direction": "Sens Sortant", "raw_techno": "BOUCLE", "osm_name": "Cours Gambetta", "osm_type": "secondary", "osm_lanes": 1.0, "osm_oneway": "True", "osm_distance": 0.21918249011887136, "osm_maxspeed": null, "osmid": 22752234.0 }, "geometry": { "type": "Point", "coordinates": [ -0.5860491, 44.8163634 ] } },
{ "type": "Feature", "properties": { "AAWT": 4929.0, "TR_AAWT": null, "savg": null, "raw_name": "Talence Cours Gambetta avant Pt SNCF", "raw_oneway": true, "raw_direction": "Sens Entrant", "raw_techno": "BOUCLE", "osm_name": "Cours Gambetta", "osm_type": "secondary", "osm_lanes": 1.0, "osm_oneway": "True", "osm_distance": 0.047157657285387164, "osm_maxspeed": 30.0, "osmid": 42458344.0 }, "geometry": { "type": "Point", "coordinates": [ -0.5856869, 44.8167291 ] } },
{ "type": "Feature", "properties": { "AAWT": 3538.0, "TR_AAWT": 179.0, "savg": 27.0, "raw_name": "Bègles 99 cours Victor Hugo", "raw_oneway": true, "raw_direction": "Sens Sortant", "raw_techno": "SIREDO", "osm_name": "Cours Victor Hugo", "osm_type": "tertiary", "osm_lanes": null, "osm_oneway": null, "osm_distance": 1.7522323549733143, "osm_maxspeed": 30.0, "osmid": 23157783.0 }, "geometry": { "type": "Point", "coordinates": [ -0.5626524, 44.8099092 ] } },
{ "type": "Feature", "properties": { "AAWT": 8298.0, "TR_AAWT": null, "savg": null, "raw_name": "Bordeaux 52 Blvd Albert 1er", "raw_oneway": true, "raw_direction": "Sud > Nord", "raw_techno": "BOUCLE", "osm_name": "Boulevard Albert 1er", "osm_type": "primary", "osm_lanes": 2.0, "osm_oneway": "True", "osm_distance": 0.9461319432277282, "osm_maxspeed": 50.0, "osmid": 753328189.0 }, "geometry": { "type": "Point", "coordinates": [ -0.5682382, 44.8140437 ] } },
{ "type": "Feature", "properties": { "AAWT": 3326.0, "TR_AAWT": null, "savg": null, "raw_name": "Bordeaux Rue de Bègles après Vaucouleur", "raw_oneway": true, "raw_direction": "Sens Entrant", "raw_techno": "BOUCLE", "osm_name": "Rue de Bègles", "osm_type": "tertiary", "osm_lanes": 2.0, "osm_oneway": null, "osm_distance": 1.9784348606051041, "osm_maxspeed": 30.0, "osmid": 25763793.0 }, "geometry": { "type": "Point", "coordinates": [ -0.5653311, 44.8152851 ] } },
{ "type": "Feature", "properties": { "AAWT": 9786.0, "TR_AAWT": null, "savg": null, "raw_name": "Bordeaux Rte Toulouse après Suzon", "raw_oneway": true, "raw_direction": "Sens Sortant", "raw_techno": "BOUCLE", "osm_name": "Route de Toulouse", "osm_type": "primary", "osm_lanes": 2.0, "osm_oneway": "False", "osm_distance": 2.7811401169932948, "osm_maxspeed": 50.0, "osmid": 880413713.0 }, "geometry": { "type": "Point", "coordinates": [ -0.5736763, 44.8123105 ] } },
{ "type": "Feature", "properties": { "AAWT": 6527.0, "TR_AAWT": null, "savg": null, "raw_name": "Bordeaux Rte Toulouse après Suzon", "raw_oneway": true, "raw_direction": "Sens Entrant", "raw_techno": "BOUCLE", "osm_name": null, "osm_type": "service", "osm_lanes": null, "osm_oneway": null, "osm_distance": 4.6766772269069223, "osm_maxspeed": null, "osmid": 885198530.0 }, "geometry": { "type": "Point", "coordinates": [ -0.5728539, 44.8139833 ] } },
{ "type": "Feature", "properties": { "AAWT": 4341.0, "TR_AAWT": null, "savg": null, "raw_name": "Bordeaux Ulysse Gayon", "raw_oneway": true, "raw_direction": "Sens Sortant", "raw_techno": "BOUCLE", "osm_name": "Rue Ulysse Gayon", "osm_type": "secondary", "osm_lanes": null, "osm_oneway": "True", "osm_distance": 1.0997669585322714, "osm_maxspeed": null, "osmid": 23607205.0 }, "geometry": { "type": "Point", "coordinates": [ -0.5908057, 44.8518257 ] } },
{ "type": "Feature", "properties": { "AAWT": 4592.0, "TR_AAWT": null, "savg": null, "raw_name": "Bordeaux Rue Fondaudège", "raw_oneway": true, "raw_direction": null, "raw_techno": "BOUCLE", "osm_name": "Rue Fondaudège", "osm_type": "secondary", "osm_lanes": 1.0, "osm_oneway": "True", "osm_distance": 0.066238824913319935, "osm_maxspeed": 30.0, "osmid": 27332724.0 }, "geometry": { "type": "Point", "coordinates": [ -0.57922, 44.8460137 ] } },
{ "type": "Feature", "properties": { "AAWT": 3682.0, "TR_AAWT": null, "savg": null, "raw_name": "Bordeaux Rue de la Course", "raw_oneway": true, "raw_direction": null, "raw_techno": "BOUCLE", "osm_name": "Rue de la Course", "osm_type": "secondary", "osm_lanes": null, "osm_oneway": "True", "osm_distance": 0.70186993141288545, "osm_maxspeed": 30.0, "osmid": 117460106.0 }, "geometry": { "type": "Point", "coordinates": [ -0.5816531, 44.8501421 ] } },
{ "type": "Feature", "properties": { "AAWT": 15135.0, "TR_AAWT": null, "savg": null, "raw_name": "Bordeaux Blvd Wilson après Colmar", "raw_oneway": true, "raw_direction": "Sud > Nord", "raw_techno": "BOUCLE", "osm_name": "Boulevard du Président Wilson", "osm_type": "primary", "osm_lanes": 2.0, "osm_oneway": "True", "osm_distance": 0.47096171999682462, "osm_maxspeed": 50.0, "osmid": 845713250.0 }, "geometry": { "type": "Point", "coordinates": [ -0.5989737, 44.844647 ] } },
{ "type": "Feature", "properties": { "AAWT": 6786.0, "TR_AAWT": null, "savg": null, "raw_name": "Bordeaux Quai Chartrons avant Chantecrit", "raw_oneway": true, "raw_direction": "Sud > Nord", "raw_techno": "BOUCLE", "osm_name": "Quai de Bacalan", "osm_type": "secondary", "osm_lanes": 1.0, "osm_oneway": "True", "osm_distance": 1.271040361539483, "osm_maxspeed": 50.0, "osmid": 35445876.0 }, "geometry": { "type": "Point", "coordinates": [ -0.5597276, 44.8574056 ] } },
{ "type": "Feature", "properties": { "AAWT": 5449.0, "TR_AAWT": null, "savg": null, "raw_name": "Bordeaux Boulevard Alfred Daney", "raw_oneway": true, "raw_direction": "Sens Entrant", "raw_techno": "BOUCLE", "osm_name": "Boulevard Alfred Daney", "osm_type": "secondary", "osm_lanes": 2.0, "osm_oneway": "True", "osm_distance": 0.14896527258490236, "osm_maxspeed": 50.0, "osmid": 213844111.0 }, "geometry": { "type": "Point", "coordinates": [ -0.5639623, 44.870959 ] } },
{ "type": "Feature", "properties": { "AAWT": 2412.0, "TR_AAWT": null, "savg": null, "raw_name": "Bordeaux Av. E. Counord après giratoire", "raw_oneway": true, "raw_direction": "Sens Sortant", "raw_techno": "BOUCLE", "osm_name": "Avenue Émile Counord", "osm_type": "residential", "osm_lanes": null, "osm_oneway": "True", "osm_distance": 0.22971184231925787, "osm_maxspeed": null, "osmid": 22382311.0 }, "geometry": { "type": "Point", "coordinates": [ -0.5750774, 44.8610285 ] } },
{ "type": "Feature", "properties": { "AAWT": 4804.0, "TR_AAWT": null, "savg": null, "raw_name": "Bordeaux Av. E. Counord avant Guillemin", "raw_oneway": true, "raw_direction": "Sens Entrant", "raw_techno": "BOUCLE", "osm_name": "Avenue Émile Counord", "osm_type": "residential", "osm_lanes": 1.0, "osm_oneway": "True", "osm_distance": 0.12515367305361608, "osm_maxspeed": null, "osmid": 243194633.0 }, "geometry": { "type": "Point", "coordinates": [ -0.575676, 44.8650082 ] } },
{ "type": "Feature", "properties": { "AAWT": 6615.0, "TR_AAWT": null, "savg": null, "raw_name": "Bordeaux Cours de Verdun après Doumer", "raw_oneway": true, "raw_direction": "Nord > Sud", "raw_techno": "BOUCLE", "osm_name": "Cours de Verdun", "osm_type": "secondary", "osm_lanes": 3.0, "osm_oneway": "False", "osm_distance": 4.6193123664188782, "osm_maxspeed": null, "osmid": 194645290.0 }, "geometry": { "type": "Point", "coordinates": [ -0.5743494, 44.8510158 ] } },
{ "type": "Feature", "properties": { "AAWT": 4513.0, "TR_AAWT": null, "savg": null, "raw_name": "Bordeaux Cours Martinique après Portal", "raw_oneway": true, "raw_direction": "Sens Sortant", "raw_techno": "BOUCLE", "osm_name": "Cours de la Martinique", "osm_type": "tertiary", "osm_lanes": null, "osm_oneway": null, "osm_distance": 0.80805753746128184, "osm_maxspeed": null, "osmid": 196110687.0 }, "geometry": { "type": "Point", "coordinates": [ -0.5728318, 44.8545587 ] } },
{ "type": "Feature", "properties": { "AAWT": 5980.0, "TR_AAWT": 310.0, "savg": 45.0, "raw_name": "Pessac 9 Av. de Madran", "raw_oneway": true, "raw_direction": "Sens Sortant", "raw_techno": "SIREDO", "osm_name": "Avenue de Madran", "osm_type": "secondary", "osm_lanes": null, "osm_oneway": null, "osm_distance": 2.6323073147387359, "osm_maxspeed": 50.0, "osmid": 24551260.0 }, "geometry": { "type": "Point", "coordinates": [ -0.6504536, 44.8054635 ] } },
{ "type": "Feature", "properties": { "AAWT": 7703.0, "TR_AAWT": 414.0, "savg": 25.0, "raw_name": "Pessac Av. de Canejan niveau rocade", "raw_oneway": true, "raw_direction": "Sens Entrant", "raw_techno": "SIREDO", "osm_name": "Avenue de Canéjan", "osm_type": "secondary", "osm_lanes": null, "osm_oneway": "True", "osm_distance": 1.6727657309446575, "osm_maxspeed": null, "osmid": 348499378.0 }, "geometry": { "type": "Point", "coordinates": [ -0.647881, 44.792394 ] } },
{ "type": "Feature", "properties": { "AAWT": 2481.0, "TR_AAWT": null, "savg": null, "raw_name": "Pessac Av. Bougnard", "raw_oneway": true, "raw_direction": "Sens Entrant", "raw_techno": "BOUCLE", "osm_name": "Avenue Bougnard", "osm_type": "secondary", "osm_lanes": 2.0, "osm_oneway": null, "osm_distance": 1.3483016872091067, "osm_maxspeed": 50.0, "osmid": 443665562.0 }, "geometry": { "type": "Point", "coordinates": [ -0.6358201, 44.7940224 ] } },
{ "type": "Feature", "properties": { "AAWT": 5355.0, "TR_AAWT": null, "savg": null, "raw_name": "Bordeaux Av. Jaurès", "raw_oneway": true, "raw_direction": "Sens Sortant", "raw_techno": "BOUCLE", "osm_name": "Avenue Jean Jaurès", "osm_type": "primary", "osm_lanes": 2.0, "osm_oneway": null, "osm_distance": 1.2001688337549297, "osm_maxspeed": null, "osmid": 285751252.0 }, "geometry": { "type": "Point", "coordinates": [ -0.6213496, 44.8101544 ] } },
{ "type": "Feature", "properties": { "AAWT": 5410.0, "TR_AAWT": null, "savg": null, "raw_name": "Pessac Av. Pasteur après Aciéries", "raw_oneway": true, "raw_direction": "Sens Entrant", "raw_techno": "BOUCLE", "osm_name": "Avenue Pasteur", "osm_type": "primary", "osm_lanes": 2.0, "osm_oneway": "False", "osm_distance": 1.3410045269626658, "osm_maxspeed": null, "osmid": 1078568623.0 }, "geometry": { "type": "Point", "coordinates": [ -0.6420863, 44.8026125 ] } },
{ "type": "Feature", "properties": { "AAWT": 14136.0, "TR_AAWT": null, "savg": null, "raw_name": "Talence Cours de la Libération", "raw_oneway": true, "raw_direction": "Sens Entrant", "raw_techno": "BOUCLE", "osm_name": "Cours de la Libération", "osm_type": "secondary", "osm_lanes": 2.0, "osm_oneway": "True", "osm_distance": 0.82774759361047212, "osm_maxspeed": 50.0, "osmid": 285201124.0 }, "geometry": { "type": "Point", "coordinates": [ -0.601912, 44.7969561 ] } },
{ "type": "Feature", "properties": { "AAWT": 2092.0, "TR_AAWT": null, "savg": null, "raw_name": "Talence Rue Lamartine avant Suzon", "raw_oneway": true, "raw_direction": "Sens Sortant", "raw_techno": "BOUCLE", "osm_name": "Rue Lamartine", "osm_type": "tertiary", "osm_lanes": null, "osm_oneway": "True", "osm_distance": 0.52019848278097958, "osm_maxspeed": 30.0, "osmid": 291450285.0 }, "geometry": { "type": "Point", "coordinates": [ -0.5860985, 44.8103781 ] } },
{ "type": "Feature", "properties": { "AAWT": 6388.0, "TR_AAWT": null, "savg": null, "raw_name": "Talence Cours de la Libération après Bdx 1", "raw_oneway": true, "raw_direction": "Sens Sortant", "raw_techno": "BOUCLE", "osm_name": "Cours de la Libération", "osm_type": "secondary", "osm_lanes": 1.0, "osm_oneway": "True", "osm_distance": 0.12280035276149572, "osm_maxspeed": 30.0, "osmid": 25651078.0 }, "geometry": { "type": "Point", "coordinates": [ -0.591438, 44.8089344 ] } },
{ "type": "Feature", "properties": { "AAWT": 3821.0, "TR_AAWT": 143.0, "savg": 44.0, "raw_name": "Talence av de Thouars (face au château)", "raw_oneway": true, "raw_direction": "Sens Entrant", "raw_techno": "SIREDO", "osm_name": "Avenue de Thouars", "osm_type": "tertiary", "osm_lanes": 2.0, "osm_oneway": null, "osm_distance": 2.6708229305915618, "osm_maxspeed": null, "osmid": 597906295.0 }, "geometry": { "type": "Point", "coordinates": [ -0.5906687, 44.7886195 ] } },
{ "type": "Feature", "properties": { "AAWT": 5067.0, "TR_AAWT": null, "savg": null, "raw_name": "Gradignan Gal de Gaulle avant platanes", "raw_oneway": true, "raw_direction": "Sens Sortant", "raw_techno": "BOUCLE", "osm_name": "Cours du Général de Gaulle", "osm_type": "primary", "osm_lanes": null, "osm_oneway": "False", "osm_distance": 1.7118592636094601, "osm_maxspeed": 50.0, "osmid": 221251419.0 }, "geometry": { "type": "Point", "coordinates": [ -0.6112155, 44.7762187 ] } },
{ "type": "Feature", "properties": { "AAWT": 6084.0, "TR_AAWT": null, "savg": null, "raw_name": "Gradignan Gal de Gaulle après Rochefort", "raw_oneway": true, "raw_direction": "Sens Entrant", "raw_techno": "BOUCLE", "osm_name": "Cours du Général de Gaulle", "osm_type": "primary", "osm_lanes": null, "osm_oneway": "False", "osm_distance": 1.6102103355466819, "osm_maxspeed": 50.0, "osmid": 221251419.0 }, "geometry": { "type": "Point", "coordinates": [ -0.6109242, 44.7766522 ] } },
{ "type": "Feature", "properties": { "AAWT": 3177.0, "TR_AAWT": null, "savg": null, "raw_name": "Gradignan F. de Monjous avant de Gaulle", "raw_oneway": true, "raw_direction": "Sud > Nord", "raw_techno": "BOUCLE", "osm_name": "Rue des Fontaines de Monjous", "osm_type": "tertiary", "osm_lanes": 2.0, "osm_oneway": null, "osm_distance": 1.6082274881891803, "osm_maxspeed": null, "osmid": 749297201.0 }, "geometry": { "type": "Point", "coordinates": [ -0.6081029, 44.7778618 ] } },
{ "type": "Feature", "properties": { "AAWT": 5541.0, "TR_AAWT": null, "savg": null, "raw_name": "Gradignan Gal de Gaulle avant platanes", "raw_oneway": true, "raw_direction": "Sens Entrant", "raw_techno": "BOUCLE", "osm_name": "Cours du Général de Gaulle", "osm_type": "primary", "osm_lanes": 2.0, "osm_oneway": "False", "osm_distance": 3.4330437544138666, "osm_maxspeed": null, "osmid": 1317005504.0 }, "geometry": { "type": "Point", "coordinates": [ -0.6124735, 44.7745815 ] } },
{ "type": "Feature", "properties": { "AAWT": 6064.0, "TR_AAWT": 374.0, "savg": 37.0, "raw_name": "Villenave d'Ornon 335 rte Toulouse", "raw_oneway": true, "raw_direction": "Sens Entrant", "raw_techno": "SIREDO", "osm_name": "Route de Toulouse", "osm_type": "primary", "osm_lanes": 2.0, "osm_oneway": "False", "osm_distance": 1.4125346571374267, "osm_maxspeed": 50.0, "osmid": 163984491.0 }, "geometry": { "type": "Point", "coordinates": [ -0.57093, 44.8018269 ] } },
{ "type": "Feature", "properties": { "AAWT": 9516.0, "TR_AAWT": null, "savg": null, "raw_name": "Bègles Rte de Toulouse aprés Sévène", "raw_oneway": true, "raw_direction": "Sens Sortant", "raw_techno": "BOUCLE", "osm_name": "Route de Toulouse", "osm_type": "primary", "osm_lanes": 2.0, "osm_oneway": "False", "osm_distance": 3.209969250562001, "osm_maxspeed": 50.0, "osmid": 1195522843.0 }, "geometry": { "type": "Point", "coordinates": [ -0.5734752, 44.8075484 ] } },
{ "type": "Feature", "properties": { "AAWT": 2367.0, "TR_AAWT": null, "savg": null, "raw_name": "Villenave d'Ornon Rue Jean Pages", "raw_oneway": true, "raw_direction": "Sens Entrant", "raw_techno": "BOUCLE", "osm_name": "Rue Jean Pages", "osm_type": "residential", "osm_lanes": null, "osm_oneway": null, "osm_distance": 1.7870258051423138, "osm_maxspeed": null, "osmid": 503347127.0 }, "geometry": { "type": "Point", "coordinates": [ -0.5656786, 44.7804395 ] } },
{ "type": "Feature", "properties": { "AAWT": 18453.0, "TR_AAWT": null, "savg": null, "raw_name": "Bordeaux Quai Grave après Allamandier", "raw_oneway": true, "raw_direction": "Sud > Nord", "raw_techno": "BOUCLE", "osm_name": "Quai de la Grave", "osm_type": "secondary", "osm_lanes": 2.0, "osm_oneway": "True", "osm_distance": 0.1004646389881967, "osm_maxspeed": 50.0, "osmid": 24515739.0 }, "geometry": { "type": "Point", "coordinates": [ -0.5637112, 44.835321 ] } },
{ "type": "Feature", "properties": { "AAWT": 3671.0, "TR_AAWT": null, "savg": null, "raw_name": "Bordeaux Martinique", "raw_oneway": true, "raw_direction": "Sens Entrant", "raw_techno": "BOUCLE", "osm_name": "Cours de la Martinique", "osm_type": "tertiary", "osm_lanes": null, "osm_oneway": null, "osm_distance": 0.19721334104201158, "osm_maxspeed": 50.0, "osmid": 163984524.0 }, "geometry": { "type": "Point", "coordinates": [ -0.5682806, 44.852531 ] } },
{ "type": "Feature", "properties": { "AAWT": 4384.0, "TR_AAWT": null, "savg": null, "raw_name": "Bordeaux Av. Libération avant Poincaré", "raw_oneway": true, "raw_direction": "Sens Sortant", "raw_techno": "BOUCLE", "osm_name": "Avenue de la Libération", "osm_type": "secondary", "osm_lanes": null, "osm_oneway": "True", "osm_distance": 1.0591958535373034, "osm_maxspeed": 30.0, "osmid": 194643851.0 }, "geometry": { "type": "Point", "coordinates": [ -0.5975564, 44.8575471 ] } },
{ "type": "Feature", "properties": { "AAWT": 5022.0, "TR_AAWT": null, "savg": null, "raw_name": "Bordeaux Av. Libération après le carrefour, avant la Rue des Ecus", "raw_oneway": true, "raw_direction": "Sens Sortant", "raw_techno": "BOUCLE", "osm_name": "Avenue de la Libération", "osm_type": "secondary", "osm_lanes": null, "osm_oneway": "True", "osm_distance": 4.14122732983743, "osm_maxspeed": 30.0, "osmid": 930260899.0 }, "geometry": { "type": "Point", "coordinates": [ -0.6063372, 44.866671 ] } },
{ "type": "Feature", "properties": { "AAWT": 5374.0, "TR_AAWT": 243.0, "savg": 28.0, "raw_name": "Lormont 36 Av. de Paris", "raw_oneway": true, "raw_direction": "Sens Sortant", "raw_techno": "SIREDO", "osm_name": "Avenue de Paris", "osm_type": "secondary", "osm_lanes": null, "osm_oneway": "True", "osm_distance": 0.33792974177440327, "osm_maxspeed": null, "osmid": 433292034.0 }, "geometry": { "type": "Point", "coordinates": [ -0.5120443, 44.8709105 ] } },
{ "type": "Feature", "properties": { "AAWT": 2923.0, "TR_AAWT": null, "savg": null, "raw_name": "Lormont Dupin après Tallavi", "raw_oneway": true, "raw_direction": "Pt Aquit> av de Paris", "raw_techno": "BOUCLE", "osm_name": "Rue André Dupin", "osm_type": "residential", "osm_lanes": null, "osm_oneway": null, "osm_distance": 1.7394165040512017, "osm_maxspeed": 30.0, "osmid": 432375194.0 }, "geometry": { "type": "Point", "coordinates": [ -0.5239218, 44.8797593 ] } },
{ "type": "Feature", "properties": { "AAWT": 3265.0, "TR_AAWT": null, "savg": null, "raw_name": "Lormont Dupin après Lavergne", "raw_oneway": true, "raw_direction": "Av. de Paris> Pt Aquit", "raw_techno": "BOUCLE", "osm_name": "Rue André Dupin", "osm_type": "residential", "osm_lanes": null, "osm_oneway": null, "osm_distance": 1.554592595103738, "osm_maxspeed": 30.0, "osmid": 432375194.0 }, "geometry": { "type": "Point", "coordinates": [ -0.5205961, 44.879648 ] } },
{ "type": "Feature", "properties": { "AAWT": 11064.0, "TR_AAWT": null, "savg": null, "raw_name": "Cenon Av. Carnot après 4 Pavillons", "raw_oneway": true, "raw_direction": "Sens Entrant", "raw_techno": "BOUCLE", "osm_name": "Avenue Carnot", "osm_type": "primary", "osm_lanes": 2.0, "osm_oneway": "True", "osm_distance": 0.15124645252676652, "osm_maxspeed": 50.0, "osmid": 432377868.0 }, "geometry": { "type": "Point", "coordinates": [ -0.5158591, 44.8651928 ] } },
{ "type": "Feature", "properties": { "AAWT": 8872.0, "TR_AAWT": null, "savg": null, "raw_name": "Eysines Av. du Médoc avant C. du Vigean", "raw_oneway": true, "raw_direction": "Sens Entrant", "raw_techno": "BOUCLE", "osm_name": "Avenue du Médoc", "osm_type": "primary", "osm_lanes": 2.0, "osm_oneway": null, "osm_distance": 2.2964411310443817, "osm_maxspeed": 50.0, "osmid": 771251361.0 }, "geometry": { "type": "Point", "coordinates": [ -0.6315623, 44.8830529 ] } },
{ "type": "Feature", "properties": { "AAWT": 2666.0, "TR_AAWT": null, "savg": null, "raw_name": "Bruges Av. Charles de Gaulle", "raw_oneway": true, "raw_direction": "Sud > Nord", "raw_techno": "BOUCLE", "osm_name": "Avenue du Général de Gaulle", "osm_type": "secondary", "osm_lanes": 2.0, "osm_oneway": null, "osm_distance": 1.712882278474763, "osm_maxspeed": 50.0, "osmid": 22779842.0 }, "geometry": { "type": "Point", "coordinates": [ -0.6168415, 44.8742472 ] } },
{ "type": "Feature", "properties": { "AAWT": 11244.0, "TR_AAWT": null, "savg": null, "raw_name": "Bruges Rte du Médoc  avant Hippodrome", "raw_oneway": true, "raw_direction": "Sens Entrant", "raw_techno": "BOUCLE", "osm_name": "Route du Médoc", "osm_type": "primary", "osm_lanes": 2.0, "osm_oneway": null, "osm_distance": 2.366735124619777, "osm_maxspeed": null, "osmid": 521828397.0 }, "geometry": { "type": "Point", "coordinates": [ -0.6239892, 44.8779626 ] } },
{ "type": "Feature", "properties": { "AAWT": 18296.0, "TR_AAWT": 1248.0, "savg": 57.0, "raw_name": "Le Taillan-Médoc Route de Lacanau", "raw_oneway": true, "raw_direction": "Sens Sortant", "raw_techno": "SIREDO", "osm_name": "Route de Lacanau", "osm_type": "primary", "osm_lanes": 2.0, "osm_oneway": null, "osm_distance": 1.4626543435794344, "osm_maxspeed": 80.0, "osmid": 648804111.0 }, "geometry": { "type": "Point", "coordinates": [ -0.6756967, 44.8964007 ] } },
{ "type": "Feature", "properties": { "AAWT": 11411.0, "TR_AAWT": null, "savg": null, "raw_name": "Mérignac Magudas avant Cigale", "raw_oneway": true, "raw_direction": "Sens Entrant", "raw_techno": "BOUCLE", "osm_name": "Avenue de Magudas", "osm_type": "secondary", "osm_lanes": 2.0, "osm_oneway": null, "osm_distance": 0.99544384016736531, "osm_maxspeed": 50.0, "osmid": 599902473.0 }, "geometry": { "type": "Point", "coordinates": [ -0.6588304, 44.8572088 ] } },
{ "type": "Feature", "properties": { "AAWT": 13905.0, "TR_AAWT": null, "savg": null, "raw_name": "Mérignac Magudas après rocade", "raw_oneway": true, "raw_direction": "Sens Entrant", "raw_techno": "BOUCLE", "osm_name": "Avenue de Magudas", "osm_type": "primary", "osm_lanes": 2.0, "osm_oneway": "True", "osm_distance": 0.8577805600304993, "osm_maxspeed": 50.0, "osmid": 593445939.0 }, "geometry": { "type": "Point", "coordinates": [ -0.6617284, 44.8576251 ] } },
{ "type": "Feature", "properties": { "AAWT": 5371.0, "TR_AAWT": null, "savg": null, "raw_name": "Le Haillan Mermoz avant Magudas", "raw_oneway": true, "raw_direction": "Nord > Sud", "raw_techno": "BOUCLE", "osm_name": "Rue Jean Mermoz", "osm_type": "secondary", "osm_lanes": 2.0, "osm_oneway": null, "osm_distance": 2.7547809971518875, "osm_maxspeed": 50.0, "osmid": 1181446363.0 }, "geometry": { "type": "Point", "coordinates": [ -0.6662982, 44.859161 ] } },
{ "type": "Feature", "properties": { "AAWT": 3076.0, "TR_AAWT": null, "savg": null, "raw_name": "Mérignac Daudet avant Magudas", "raw_oneway": true, "raw_direction": "Sud > Nord", "raw_techno": "BOUCLE", "osm_name": "Rue Alphonse Daudet", "osm_type": "tertiary", "osm_lanes": 2.0, "osm_oneway": "True", "osm_distance": 2.176422893093271, "osm_maxspeed": 30.0, "osmid": 157086937.0 }, "geometry": { "type": "Point", "coordinates": [ -0.6596163, 44.8568776 ] } },
{ "type": "Feature", "properties": { "AAWT": 14387.0, "TR_AAWT": null, "savg": null, "raw_name": "Mérignac Magudas après Cigale", "raw_oneway": true, "raw_direction": "Sens Sortant", "raw_techno": "BOUCLE", "osm_name": "Avenue de Magudas", "osm_type": "secondary", "osm_lanes": 2.0, "osm_oneway": null, "osm_distance": 1.6970325389078955, "osm_maxspeed": 50.0, "osmid": 599902473.0 }, "geometry": { "type": "Point", "coordinates": [ -0.6587488, 44.8572262 ] } },
{ "type": "Feature", "properties": { "AAWT": 7456.0, "TR_AAWT": null, "savg": null, "raw_name": "Bordeaux All. Boutaut avant Claudeville", "raw_oneway": true, "raw_direction": "Sens Entrant", "raw_techno": "BOUCLE", "osm_name": "Allée de Boutaut", "osm_type": "secondary", "osm_lanes": 2.0, "osm_oneway": "True", "osm_distance": 0.32354555245380007, "osm_maxspeed": 50.0, "osmid": 688159980.0 }, "geometry": { "type": "Point", "coordinates": [ -0.5767856, 44.8747258 ] } },
{ "type": "Feature", "properties": { "AAWT": 6575.0, "TR_AAWT": null, "savg": null, "raw_name": "Bordeaux Allée de Boutaut après Laroque", "raw_oneway": true, "raw_direction": "Sens Sortant", "raw_techno": "BOUCLE", "osm_name": "Allée de Boutaut", "osm_type": "secondary", "osm_lanes": 2.0, "osm_oneway": "True", "osm_distance": 2.0564182662591759, "osm_maxspeed": 50.0, "osmid": 184728037.0 }, "geometry": { "type": "Point", "coordinates": [ -0.5765822, 44.8748929 ] } },
{ "type": "Feature", "properties": { "AAWT": 1125.0, "TR_AAWT": null, "savg": null, "raw_name": "Bordeaux Cours de Quebec après Laroque", "raw_oneway": true, "raw_direction": "Sud > Nord", "raw_techno": "BOUCLE", "osm_name": "Cours de Québec", "osm_type": "residential", "osm_lanes": null, "osm_oneway": "True", "osm_distance": 0.47961168718733466, "osm_maxspeed": 30.0, "osmid": 184745717.0 }, "geometry": { "type": "Point", "coordinates": [ -0.5714706, 44.8764029 ] } },
{ "type": "Feature", "properties": { "AAWT": 973.0, "TR_AAWT": null, "savg": null, "raw_name": "Bordeaux Brunet avant Brandenburg", "raw_oneway": true, "raw_direction": "Sens Entrant", "raw_techno": "BOUCLE", "osm_name": "Rue Joseph Brunet", "osm_type": "residential", "osm_lanes": null, "osm_oneway": "False", "osm_distance": 2.2108551250864994, "osm_maxspeed": 50.0, "osmid": 23157928.0 }, "geometry": { "type": "Point", "coordinates": [ -0.5442623, 44.8773476 ] } },
{ "type": "Feature", "properties": { "AAWT": 3037.0, "TR_AAWT": null, "savg": null, "raw_name": "Bordeaux Cours Bricaud après Vergne", "raw_oneway": true, "raw_direction": "Sens Sortant", "raw_techno": "BOUCLE", "osm_name": "Cours Charles Bricaud", "osm_type": "secondary", "osm_lanes": 1.0, "osm_oneway": "True", "osm_distance": 0.086234656829936002, "osm_maxspeed": null, "osmid": 1240202940.0 }, "geometry": { "type": "Point", "coordinates": [ -0.5619807, 44.8903701 ] } },
{ "type": "Feature", "properties": { "AAWT": 8869.0, "TR_AAWT": 379.0, "savg": null, "raw_name": "Bègles rte de Courréjean", "raw_oneway": true, "raw_direction": "Sens Entrant", "raw_techno": "SIREDO", "osm_name": "Rue Jeanne d'Arc", "osm_type": "tertiary", "osm_lanes": null, "osm_oneway": null, "osm_distance": 1.8657466238328089, "osm_maxspeed": null, "osmid": 25892599.0 }, "geometry": { "type": "Point", "coordinates": [ -0.5415183, 44.7966189 ] } },
{ "type": "Feature", "properties": { "AAWT": 6605.0, "TR_AAWT": 342.0, "savg": null, "raw_name": "Bègles rte de Courréjean", "raw_oneway": true, "raw_direction": "Sens Sortant", "raw_techno": "SIREDO", "osm_name": "Rue Jeanne d'Arc", "osm_type": "tertiary", "osm_lanes": null, "osm_oneway": null, "osm_distance": 2.1422073347716131, "osm_maxspeed": null, "osmid": 25892599.0 }, "geometry": { "type": "Point", "coordinates": [ -0.54156, 44.7966209 ] } },
{ "type": "Feature", "properties": { "AAWT": 3526.0, "TR_AAWT": null, "savg": null, "raw_name": "Bordeaux Pallière avant Carle Vernet", "raw_oneway": true, "raw_direction": "Sens Entrant", "raw_techno": "BOUCLE", "osm_name": "Rue Léon Paillère", "osm_type": "tertiary", "osm_lanes": 2.0, "osm_oneway": null, "osm_distance": 1.922043249190204, "osm_maxspeed": 30.0, "osmid": 26812761.0 }, "geometry": { "type": "Point", "coordinates": [ -0.5494181, 44.8194975 ] } },
{ "type": "Feature", "properties": { "AAWT": 1188.0, "TR_AAWT": null, "savg": null, "raw_name": "Bègles Croizat après Lapelleterie", "raw_oneway": true, "raw_direction": "Sens Sortant", "raw_techno": "BOUCLE", "osm_name": "Rue Ambroise Croizat", "osm_type": "residential", "osm_lanes": null, "osm_oneway": "True", "osm_distance": 0.76067418418420751, "osm_maxspeed": null, "osmid": 26186947.0 }, "geometry": { "type": "Point", "coordinates": [ -0.5515825, 44.8103921 ] } },
{ "type": "Feature", "properties": { "AAWT": 6649.0, "TR_AAWT": 250.0, "savg": 42.0, "raw_name": "Pessac Av. Pasteur niveau rocade", "raw_oneway": true, "raw_direction": "Sens Sortant", "raw_techno": "SIREDO", "osm_name": "Avenue Pasteur", "osm_type": "primary", "osm_lanes": 2.0, "osm_oneway": null, "osm_distance": 1.8228124015609535, "osm_maxspeed": 50.0, "osmid": 813501226.0 }, "geometry": { "type": "Point", "coordinates": [ -0.6572624, 44.8006745 ] } },
{ "type": "Feature", "properties": { "AAWT": 3433.0, "TR_AAWT": null, "savg": null, "raw_name": "Pessac Haut Lévèque avant Matisse", "raw_oneway": true, "raw_direction": "Sud > Nord", "raw_techno": "BOUCLE", "osm_name": "Avenue du Haut-Lévêque", "osm_type": "secondary", "osm_lanes": null, "osm_oneway": null, "osm_distance": 2.6557998462966879, "osm_maxspeed": null, "osmid": 580601498.0 }, "geometry": { "type": "Point", "coordinates": [ -0.6562515, 44.7892927 ] } },
{ "type": "Feature", "properties": { "AAWT": 5055.0, "TR_AAWT": null, "savg": null, "raw_name": "Pessac Haut Lévèque avant Magellan", "raw_oneway": true, "raw_direction": "Nord > Sud", "raw_techno": "BOUCLE", "osm_name": "Passage Supérieur du Haut-Lévêque", "osm_type": "secondary", "osm_lanes": null, "osm_oneway": "True", "osm_distance": 0.95883873844944278, "osm_maxspeed": 30.0, "osmid": 581194457.0 }, "geometry": { "type": "Point", "coordinates": [ -0.6576327, 44.7922509 ] } },
{ "type": "Feature", "properties": { "AAWT": 6590.0, "TR_AAWT": null, "savg": null, "raw_name": "Pessac Pasteur après Haut-Lévêque", "raw_oneway": true, "raw_direction": "Sens Entrant", "raw_techno": "BOUCLE", "osm_name": "Avenue Pasteur", "osm_type": "primary", "osm_lanes": null, "osm_oneway": "True", "osm_distance": 0.27573850183921095, "osm_maxspeed": 50.0, "osmid": 103823483.0 }, "geometry": { "type": "Point", "coordinates": [ -0.662058, 44.7996042 ] } },
{ "type": "Feature", "properties": { "AAWT": 9709.0, "TR_AAWT": null, "savg": null, "raw_name": "Pessac Av. du Bourghail après Monbalon", "raw_oneway": true, "raw_direction": "Nord > Sud", "raw_techno": "BOUCLE", "osm_name": "Avenue du Bourgailh", "osm_type": "primary", "osm_lanes": 2.0, "osm_oneway": "True", "osm_distance": 0.32718695261113928, "osm_maxspeed": 50.0, "osmid": 363504098.0 }, "geometry": { "type": "Point", "coordinates": [ -0.6634783, 44.8018652 ] } },
{ "type": "Feature", "properties": { "AAWT": 8264.0, "TR_AAWT": 501.0, "savg": 52.0, "raw_name": "Saint-Médard-en-Jalles Av. de Capeyron", "raw_oneway": true, "raw_direction": "Sens Entrant", "raw_techno": "SIREDO", "osm_name": "Avenue de Capeyron", "osm_type": "primary", "osm_lanes": 2.0, "osm_oneway": null, "osm_distance": 0.53106720732274137, "osm_maxspeed": 50.0, "osmid": 398320533.0 }, "geometry": { "type": "Point", "coordinates": [ -0.7138188, 44.8655621 ] } },
{ "type": "Feature", "properties": { "AAWT": 3766.0, "TR_AAWT": 83.0, "savg": 51.0, "raw_name": "Artigues Blvd de Feydeau", "raw_oneway": true, "raw_direction": "Sens Entrant", "raw_techno": "SIREDO", "osm_name": "Boulevard de Feydeau", "osm_type": "secondary", "osm_lanes": 2.0, "osm_oneway": null, "osm_distance": 2.1722650237405308, "osm_maxspeed": 30.0, "osmid": 24009227.0 }, "geometry": { "type": "Point", "coordinates": [ -0.5002807, 44.8483487 ] } },
{ "type": "Feature", "properties": { "AAWT": 12180.0, "TR_AAWT": 427.0, "savg": 35.0, "raw_name": "Cenon Blvd de l'Entre-deux-Mers", "raw_oneway": true, "raw_direction": "Sens Sortant", "raw_techno": "SIREDO", "osm_name": "Boulevard de l'Entre-Deux-Mers", "osm_type": "primary", "osm_lanes": 2.0, "osm_oneway": "True", "osm_distance": 0.6336270820511043, "osm_maxspeed": null, "osmid": 210123621.0 }, "geometry": { "type": "Point", "coordinates": [ -0.5349044, 44.8459469 ] } },
{ "type": "Feature", "properties": { "AAWT": 4629.0, "TR_AAWT": null, "savg": null, "raw_name": "Cenon Av. Clémenceau avant 8 mai 45", "raw_oneway": true, "raw_direction": "Sens Sortant", "raw_techno": "BOUCLE", "osm_name": "Avenue Georges Clemenceau", "osm_type": "tertiary", "osm_lanes": 2.0, "osm_oneway": null, "osm_distance": 2.213739486634497, "osm_maxspeed": 30.0, "osmid": 40754842.0 }, "geometry": { "type": "Point", "coordinates": [ -0.5084824, 44.8528015 ] } },
{ "type": "Feature", "properties": { "AAWT": 4432.0, "TR_AAWT": null, "savg": null, "raw_name": "Floirac Monrepos avant Cours Gambetta", "raw_oneway": true, "raw_direction": "Sens Entrant", "raw_techno": "BOUCLE", "osm_name": "Cours Gambetta", "osm_type": "secondary", "osm_lanes": 2.0, "osm_oneway": null, "osm_distance": 0.90035656120535679, "osm_maxspeed": 30.0, "osmid": 206311035.0 }, "geometry": { "type": "Point", "coordinates": [ -0.5276973, 44.8437679 ] } },
{ "type": "Feature", "properties": { "AAWT": 2560.0, "TR_AAWT": null, "savg": null, "raw_name": "Bordeaux Rue Galin", "raw_oneway": true, "raw_direction": "Sens Entrant", "raw_techno": "BOUCLE", "osm_name": "Rue Galin", "osm_type": "secondary", "osm_lanes": 3.0, "osm_oneway": null, "osm_distance": 1.5902674656284204, "osm_maxspeed": 30.0, "osmid": 185675453.0 }, "geometry": { "type": "Point", "coordinates": [ -0.5421929, 44.848016 ] } },
{ "type": "Feature", "properties": { "AAWT": 5905.0, "TR_AAWT": null, "savg": null, "raw_name": "Bordeaux Cursol après Pasteur", "raw_oneway": true, "raw_direction": "Sens Entrant", "raw_techno": "BOUCLE", "osm_name": "Rue de Cursol", "osm_type": "secondary", "osm_lanes": 2.0, "osm_oneway": null, "osm_distance": 1.3275985557607171, "osm_maxspeed": null, "osmid": 189536169.0 }, "geometry": { "type": "Point", "coordinates": [ -0.5756565, 44.8350142 ] } },
{ "type": "Feature", "properties": { "AAWT": 3766.0, "TR_AAWT": null, "savg": null, "raw_name": "Bordeaux Descente => Allamandier", "raw_oneway": true, "raw_direction": "Bretelle Nord > Sud Descente > Allamandier", "raw_techno": "BOUCLE", "osm_name": "Quai des Salinières", "osm_type": "secondary_link", "osm_lanes": 1.0, "osm_oneway": "True", "osm_distance": 0.0068102702839858602, "osm_maxspeed": null, "osmid": 1365577930.0 }, "geometry": { "type": "Point", "coordinates": [ -0.5651526, 44.8364488 ] } },
{ "type": "Feature", "properties": { "AAWT": 3893.0, "TR_AAWT": null, "savg": null, "raw_name": "Bordeaux Rue de Belfort après Juin", "raw_oneway": true, "raw_direction": "Nord > Sud", "raw_techno": "BOUCLE", "osm_name": "Rue de Belfort", "osm_type": "tertiary", "osm_lanes": null, "osm_oneway": "True", "osm_distance": 0.11516623246684679, "osm_maxspeed": null, "osmid": 23160063.0 }, "geometry": { "type": "Point", "coordinates": [ -0.5824028, 44.8359343 ] } },
{ "type": "Feature", "properties": { "AAWT": 9322.0, "TR_AAWT": null, "savg": null, "raw_name": "Bordeaux Cours V Hugo Bir Hakeim/Rousselle", "raw_oneway": true, "raw_direction": "Sens Entrant", "raw_techno": "BOUCLE", "osm_name": "Cours Victor Hugo", "osm_type": "secondary", "osm_lanes": 2.0, "osm_oneway": "True", "osm_distance": 1.2356338131030213, "osm_maxspeed": null, "osmid": 625566101.0 }, "geometry": { "type": "Point", "coordinates": [ -0.5668716, 44.8360725 ] } },
{ "type": "Feature", "properties": { "AAWT": 4656.0, "TR_AAWT": null, "savg": null, "raw_name": "Bordeaux Juin A.France", "raw_oneway": true, "raw_direction": "Sens Sortant", "raw_techno": "BOUCLE", "osm_name": "Cours du Maréchal Juin", "osm_type": "secondary", "osm_lanes": null, "osm_oneway": "True", "osm_distance": 0.50067274455956723, "osm_maxspeed": null, "osmid": 23158027.0 }, "geometry": { "type": "Point", "coordinates": [ -0.5839379, 44.8358328 ] } },
{ "type": "Feature", "properties": { "AAWT": 6283.0, "TR_AAWT": 235.0, "savg": null, "raw_name": "Mérignac Av. de la Marne", "raw_oneway": true, "raw_direction": "Sens Entrant", "raw_techno": "SIREDO", "osm_name": "Avenue de la Marne", "osm_type": "secondary", "osm_lanes": null, "osm_oneway": null, "osm_distance": 1.0920023991506491, "osm_maxspeed": 50.0, "osmid": 548372051.0 }, "geometry": { "type": "Point", "coordinates": [ -0.6318109, 44.8351252 ] } },
{ "type": "Feature", "properties": { "AAWT": 6223.0, "TR_AAWT": null, "savg": null, "raw_name": "Mérignac Av. Mendès-France", "raw_oneway": true, "raw_direction": "Nord > Sud", "raw_techno": "BOUCLE", "osm_name": "Avenue Pierre Mendès-France", "osm_type": "secondary", "osm_lanes": 2.0, "osm_oneway": null, "osm_distance": 3.9708932808837183, "osm_maxspeed": 50.0, "osmid": 24565200.0 }, "geometry": { "type": "Point", "coordinates": [ -0.637387, 44.8254007 ] } },
{ "type": "Feature", "properties": { "AAWT": 5795.0, "TR_AAWT": null, "savg": null, "raw_name": "Mérignac Av. Mendès-France", "raw_oneway": true, "raw_direction": "Sud > Nord", "raw_techno": "BOUCLE", "osm_name": "Avenue Pierre Mendès-France", "osm_type": "secondary", "osm_lanes": null, "osm_oneway": "True", "osm_distance": 0.20391665956615371, "osm_maxspeed": 50.0, "osmid": 284824732.0 }, "geometry": { "type": "Point", "coordinates": [ -0.6398104, 44.830403 ] } },
{ "type": "Feature", "properties": { "AAWT": 5494.0, "TR_AAWT": null, "savg": null, "raw_name": "Mérignac Av. Maréchal Leclerc après Coty", "raw_oneway": true, "raw_direction": "Nord > Sud", "raw_techno": "BOUCLE", "osm_name": "Avenue du Maréchal Leclerc", "osm_type": "secondary", "osm_lanes": 1.0, "osm_oneway": "True", "osm_distance": 0.97310241398937969, "osm_maxspeed": 50.0, "osmid": 25752073.0 }, "geometry": { "type": "Point", "coordinates": [ -0.647135, 44.8367675 ] } },
{ "type": "Feature", "properties": { "AAWT": 3702.0, "TR_AAWT": null, "savg": null, "raw_name": "Mérignac Av. Maréchal Leclerc", "raw_oneway": true, "raw_direction": "Sud > Nord", "raw_techno": "BOUCLE", "osm_name": "Avenue du Maréchal Leclerc", "osm_type": "secondary", "osm_lanes": null, "osm_oneway": "True", "osm_distance": 0.52220883802531282, "osm_maxspeed": 50.0, "osmid": 25752030.0 }, "geometry": { "type": "Point", "coordinates": [ -0.6469026, 44.8374847 ] } },
{ "type": "Feature", "properties": { "AAWT": 1931.0, "TR_AAWT": null, "savg": null, "raw_name": "Mérignac Eyquems avant Rue Bourly", "raw_oneway": true, "raw_direction": "Sens Entrant", "raw_techno": "BOUCLE", "osm_name": "Avenue des Eyquems", "osm_type": "tertiary", "osm_lanes": 2.0, "osm_oneway": null, "osm_distance": 1.1010696429787687, "osm_maxspeed": 30.0, "osmid": 47431005.0 }, "geometry": { "type": "Point", "coordinates": [ -0.6361679, 44.8297563 ] } },
{ "type": "Feature", "properties": { "AAWT": 9453.0, "TR_AAWT": null, "savg": null, "raw_name": "Bassens Côte de la Garonne", "raw_oneway": true, "raw_direction": "Nord > Sud", "raw_techno": "BOUCLE", "osm_name": "Côte de la Garonne", "osm_type": "secondary", "osm_lanes": null, "osm_oneway": "True", "osm_distance": 0.59707195277398806, "osm_maxspeed": null, "osmid": 404227593.0 }, "geometry": { "type": "Point", "coordinates": [ -0.5193922, 44.886753 ] } },
{ "type": "Feature", "properties": { "AAWT": 4717.0, "TR_AAWT": null, "savg": null, "raw_name": "Bassens Sortie autoroute Ech. 2", "raw_oneway": true, "raw_direction": "Bretelle Sortante Nord", "raw_techno": "BOUCLE", "osm_name": null, "osm_type": "motorway_link", "osm_lanes": null, "osm_oneway": "True", "osm_distance": 0.25069529628917619, "osm_maxspeed": 90.0, "osmid": 146244198.0 }, "geometry": { "type": "Point", "coordinates": [ -0.518059, 44.8844683 ] } },
{ "type": "Feature", "properties": { "AAWT": 6488.0, "TR_AAWT": null, "savg": null, "raw_name": "Carbon Blanc Griffons avant Pasteur", "raw_oneway": true, "raw_direction": "Sud > Nord", "raw_techno": "BOUCLE", "osm_name": "Avenue des Griffons", "osm_type": "tertiary", "osm_lanes": null, "osm_oneway": "True", "osm_distance": 0.94084023396945238, "osm_maxspeed": null, "osmid": 597872257.0 }, "geometry": { "type": "Point", "coordinates": [ -0.5161976, 44.8916556 ] } },
{ "type": "Feature", "properties": { "AAWT": 7317.0, "TR_AAWT": 352.0, "savg": null, "raw_name": "Floirac 35 Av. Gaston Cabannes", "raw_oneway": true, "raw_direction": "Sens Sortant", "raw_techno": "SIREDO", "osm_name": "Avenue Gaston Cabannes", "osm_type": "secondary", "osm_lanes": 2.0, "osm_oneway": null, "osm_distance": 1.808034313558204, "osm_maxspeed": 30.0, "osmid": 1348001634.0 }, "geometry": { "type": "Point", "coordinates": [ -0.5223947, 44.8270797 ] } },
{ "type": "Feature", "properties": { "AAWT": 11285.0, "TR_AAWT": 516.0, "savg": 38.0, "raw_name": "Ambares Av. de la Libération", "raw_oneway": true, "raw_direction": "Sens Sortant", "raw_techno": "SIREDO", "osm_name": "Avenue de la Libération", "osm_type": "secondary", "osm_lanes": 2.0, "osm_oneway": null, "osm_distance": 3.0209264888339655, "osm_maxspeed": null, "osmid": 37830909.0 }, "geometry": { "type": "Point", "coordinates": [ -0.481884, 44.9167635 ] } },
{ "type": "Feature", "properties": { "AAWT": 3712.0, "TR_AAWT": null, "savg": null, "raw_name": "Bordeaux Rue Lamourous avant St. Genès.", "raw_oneway": true, "raw_direction": "Sens Sortant", "raw_techno": "BOUCLE", "osm_name": "Rue Lamourous", "osm_type": "tertiary", "osm_lanes": null, "osm_oneway": "True", "osm_distance": 0.83862739658015029, "osm_maxspeed": null, "osmid": 23164619.0 }, "geometry": { "type": "Point", "coordinates": [ -0.5805392, 44.8291587 ] } },
{ "type": "Feature", "properties": { "AAWT": 2160.0, "TR_AAWT": null, "savg": null, "raw_name": "Bordeaux 36 Cours de l' Argonne", "raw_oneway": true, "raw_direction": "Sens Entrant", "raw_techno": "BOUCLE", "osm_name": "Cours de l'Argonne", "osm_type": "tertiary", "osm_lanes": null, "osm_oneway": "True", "osm_distance": 0.37997998688438739, "osm_maxspeed": 30.0, "osmid": 185675434.0 }, "geometry": { "type": "Point", "coordinates": [ -0.5735972, 44.829363 ] } },
{ "type": "Feature", "properties": { "AAWT": 4599.0, "TR_AAWT": null, "savg": null, "raw_name": "Bordeaux Cours de Verdun avant Gourgues", "raw_oneway": true, "raw_direction": "Sud > Nord", "raw_techno": "BOUCLE", "osm_name": "Cours de Verdun", "osm_type": "secondary", "osm_lanes": 2.0, "osm_oneway": "True", "osm_distance": 0.89770817401091796, "osm_maxspeed": 50.0, "osmid": 816743253.0 }, "geometry": { "type": "Point", "coordinates": [ -0.5769622, 44.8466148 ] } },
{ "type": "Feature", "properties": { "AAWT": 4918.0, "TR_AAWT": null, "savg": null, "raw_name": "Bordeaux Rue N.-Pénard après Michelet", "raw_oneway": true, "raw_direction": "Nord > Sud", "raw_techno": "BOUCLE", "osm_name": "Rue Docteur Charles Nancel-Pénard", "osm_type": "secondary", "osm_lanes": null, "osm_oneway": "True", "osm_distance": 0.15441931672939652, "osm_maxspeed": 50.0, "osmid": 605910142.0 }, "geometry": { "type": "Point", "coordinates": [ -0.5811151, 44.8400405 ] } },
{ "type": "Feature", "properties": { "AAWT": 7429.0, "TR_AAWT": null, "savg": null, "raw_name": "Bordeaux Allées de Tourny", "raw_oneway": true, "raw_direction": "Place de la Comédie > place Tourny", "raw_techno": "BOUCLE", "osm_name": "Allées de Tourny", "osm_type": "tertiary", "osm_lanes": 1.0, "osm_oneway": "True", "osm_distance": 1.2132308010393578, "osm_maxspeed": null, "osmid": 182035770.0 }, "geometry": { "type": "Point", "coordinates": [ -0.5753851, 44.8438188 ] } },
{ "type": "Feature", "properties": { "AAWT": 5054.0, "TR_AAWT": null, "savg": null, "raw_name": "Bordeaux Cours de Verdun avant Doumer", "raw_oneway": true, "raw_direction": "Sens Sortant", "raw_techno": "BOUCLE", "osm_name": "Cours de Verdun", "osm_type": "secondary", "osm_lanes": 3.0, "osm_oneway": "False", "osm_distance": 1.2839141455191569, "osm_maxspeed": null, "osmid": 194645290.0 }, "geometry": { "type": "Point", "coordinates": [ -0.5746541, 44.8504125 ] } },
{ "type": "Feature", "properties": { "AAWT": 10152.0, "TR_AAWT": null, "savg": null, "raw_name": "Bordeaux Cours Clémenceau après Monbadon", "raw_oneway": true, "raw_direction": "Nord > Sud", "raw_techno": "BOUCLE", "osm_name": "Cours Georges Clemenceau", "osm_type": "secondary", "osm_lanes": 2.0, "osm_oneway": "True", "osm_distance": 0.78139132753436158, "osm_maxspeed": 30.0, "osmid": 180933622.0 }, "geometry": { "type": "Point", "coordinates": [ -0.5795506, 44.8425629 ] } },
{ "type": "Feature", "properties": { "AAWT": 4624.0, "TR_AAWT": null, "savg": null, "raw_name": "Bordeaux Cours N. Pénard après Albret", "raw_oneway": true, "raw_direction": "Sud > Nord", "raw_techno": "BOUCLE", "osm_name": "Rue Docteur Charles Nancel-Pénard", "osm_type": "secondary", "osm_lanes": 1.0, "osm_oneway": "True", "osm_distance": 1.186443595994231, "osm_maxspeed": 50.0, "osmid": 180358334.0 }, "geometry": { "type": "Point", "coordinates": [ -0.5816712, 44.8390401 ] } },
{ "type": "Feature", "properties": { "AAWT": 5947.0, "TR_AAWT": null, "savg": null, "raw_name": "Bordeaux 20 Rue Judaïque", "raw_oneway": true, "raw_direction": "Sens Sortant", "raw_techno": "BOUCLE", "osm_name": "Rue Judaïque", "osm_type": "secondary", "osm_lanes": 1.0, "osm_oneway": "True", "osm_distance": 0.060468739975023562, "osm_maxspeed": 30.0, "osmid": 429738150.0 }, "geometry": { "type": "Point", "coordinates": [ -0.5821513, 44.8415523 ] } },
{ "type": "Feature", "properties": { "AAWT": 10731.0, "TR_AAWT": null, "savg": null, "raw_name": "Bordeaux Rue Saget après Tauzia", "raw_oneway": true, "raw_direction": "de Tauzia > Quais", "raw_techno": "BOUCLE", "osm_name": "Rue de Saget", "osm_type": "secondary", "osm_lanes": 2.0, "osm_oneway": "True", "osm_distance": 0.57165839570438381, "osm_maxspeed": null, "osmid": 626146405.0 }, "geometry": { "type": "Point", "coordinates": [ -0.5570145, 44.8285205 ] } },
{ "type": "Feature", "properties": { "AAWT": 19740.0, "TR_AAWT": null, "savg": null, "raw_name": "Bordeaux Pont St Jean", "raw_oneway": true, "raw_direction": "Sens Entrant", "raw_techno": "BOUCLE", "osm_name": null, "osm_type": "service", "osm_lanes": 2.0, "osm_oneway": null, "osm_distance": 0.38447333167142367, "osm_maxspeed": null, "osmid": 1252974030.0 }, "geometry": { "type": "Point", "coordinates": [ -0.5555509, 44.8309281 ] } },
{ "type": "Feature", "properties": { "AAWT": 7363.0, "TR_AAWT": null, "savg": null, "raw_name": "Bordeaux Rue Domercq après Pt du Guit", "raw_oneway": true, "raw_direction": "Sens Entrant", "raw_techno": "BOUCLE", "osm_name": "Rue Charles Domercq", "osm_type": "secondary", "osm_lanes": 2.0, "osm_oneway": null, "osm_distance": 1.4744418141689302, "osm_maxspeed": null, "osmid": 118053354.0 }, "geometry": { "type": "Point", "coordinates": [ -0.5576111, 44.8244527 ] } },
{ "type": "Feature", "properties": { "AAWT": 4513.0, "TR_AAWT": null, "savg": null, "raw_name": "Bordeaux Rue Lachassaigne après Mandel", "raw_oneway": true, "raw_direction": "Nord > Sud", "raw_techno": "BOUCLE", "osm_name": "Rue de Lachassaigne", "osm_type": "tertiary", "osm_lanes": 1.0, "osm_oneway": "True", "osm_distance": 2.0043976531147538, "osm_maxspeed": null, "osmid": 23597531.0 }, "geometry": { "type": "Point", "coordinates": [ -0.5897733, 44.8424901 ] } },
{ "type": "Feature", "properties": { "AAWT": 6486.0, "TR_AAWT": null, "savg": null, "raw_name": "Mérignac Mendès-France après Verdun", "raw_oneway": true, "raw_direction": "Mérignac > Pessac         Nord > Sud", "raw_techno": "BOUCLE", "osm_name": "Avenue Pierre Mendès-France", "osm_type": "tertiary", "osm_lanes": 2.0, "osm_oneway": null, "osm_distance": 2.1395355926210087, "osm_maxspeed": 50.0, "osmid": 1188017742.0 }, "geometry": { "type": "Point", "coordinates": [ -0.6399421, 44.8400676 ] } },
{ "type": "Feature", "properties": { "AAWT": 1908.0, "TR_AAWT": null, "savg": null, "raw_name": "Mérignac Tassigny après Aimé Césaire", "raw_oneway": true, "raw_direction": "sens sortant", "raw_techno": "BOUCLE", "osm_name": "Avenue du Maréchal Lattre de Tassigny", "osm_type": "residential", "osm_lanes": null, "osm_oneway": "True", "osm_distance": 0.88483253518544025, "osm_maxspeed": null, "osmid": 37566275.0 }, "geometry": { "type": "Point", "coordinates": [ -0.6489505, 44.8432884 ] } },
{ "type": "Feature", "properties": { "AAWT": 5006.0, "TR_AAWT": null, "savg": null, "raw_name": "Mérignac Tassigny avant Robinson", "raw_oneway": true, "raw_direction": "Sens Sortant", "raw_techno": "BOUCLE", "osm_name": "Avenue du Maréchal De Lattre de Tassigny", "osm_type": "residential", "osm_lanes": null, "osm_oneway": null, "osm_distance": 1.9077399753868787, "osm_maxspeed": null, "osmid": 355658297.0 }, "geometry": { "type": "Point", "coordinates": [ -0.6568152, 44.8465713 ] } },
{ "type": "Feature", "properties": { "AAWT": 3508.0, "TR_AAWT": null, "savg": null, "raw_name": "Mérignac Av. Libération après de Gaulle", "raw_oneway": true, "raw_direction": "Sud > Nord", "raw_techno": "BOUCLE", "osm_name": "Avenue de la Libération", "osm_type": "secondary", "osm_lanes": 2.0, "osm_oneway": null, "osm_distance": 2.1540758272632572, "osm_maxspeed": 30.0, "osmid": 600306243.0 }, "geometry": { "type": "Point", "coordinates": [ -0.6457896, 44.8434205 ] } },
{ "type": "Feature", "properties": { "AAWT": 3442.0, "TR_AAWT": null, "savg": null, "raw_name": "Mérignac Av. Leclerc après V. Eglise", "raw_oneway": true, "raw_direction": "Sud > Nord", "raw_techno": "BOUCLE", "osm_name": "Avenue du Maréchal Leclerc", "osm_type": "secondary", "osm_lanes": null, "osm_oneway": "True", "osm_distance": 0.47338823547038894, "osm_maxspeed": 30.0, "osmid": 389031844.0 }, "geometry": { "type": "Point", "coordinates": [ -0.6469625, 44.8407884 ] } },
{ "type": "Feature", "properties": { "AAWT": 3682.0, "TR_AAWT": null, "savg": null, "raw_name": "Bordeaux Rue Sem", "raw_oneway": true, "raw_direction": "Sud > Nord", "raw_techno": "BOUCLE", "osm_name": "Rue Sem", "osm_type": "tertiary", "osm_lanes": 2.0, "osm_oneway": null, "osm_distance": 1.4216511097764575, "osm_maxspeed": null, "osmid": 458690503.0 }, "geometry": { "type": "Point", "coordinates": [ -0.561341, 44.840426 ] } },
{ "type": "Feature", "properties": { "AAWT": 5198.0, "TR_AAWT": null, "savg": null, "raw_name": "Bordeaux Rue Sem", "raw_oneway": true, "raw_direction": "Nord > Sud", "raw_techno": "BOUCLE", "osm_name": "Rue Sem", "osm_type": "tertiary", "osm_lanes": 2.0, "osm_oneway": null, "osm_distance": 2.339213669729872, "osm_maxspeed": null, "osmid": 253175307.0 }, "geometry": { "type": "Point", "coordinates": [ -0.5601731, 44.839406 ] } },
{ "type": "Feature", "properties": { "AAWT": 3907.0, "TR_AAWT": null, "savg": null, "raw_name": "Bordeaux Av. Thiers après Pt Bouthier", "raw_oneway": true, "raw_direction": "Sens Entrant", "raw_techno": "BOUCLE", "osm_name": "Avenue Thiers", "osm_type": "tertiary", "osm_lanes": 2.0, "osm_oneway": "True", "osm_distance": 0.095148177097702111, "osm_maxspeed": 50.0, "osmid": 608672170.0 }, "geometry": { "type": "Point", "coordinates": [ -0.5502641, 44.8462381 ] } },
{ "type": "Feature", "properties": { "AAWT": 10300.0, "TR_AAWT": null, "savg": null, "raw_name": "Bordeaux Blvd G. Pompidou après Doumerc", "raw_oneway": true, "raw_direction": "Sens Sortant", "raw_techno": "BOUCLE", "osm_name": "Boulevard Georges Pompidou", "osm_type": "secondary", "osm_lanes": 1.0, "osm_oneway": "True", "osm_distance": 0.15717919444235776, "osm_maxspeed": 50.0, "osmid": 23336422.0 }, "geometry": { "type": "Point", "coordinates": [ -0.6018416, 44.8332866 ] } },
{ "type": "Feature", "properties": { "AAWT": 6541.0, "TR_AAWT": null, "savg": null, "raw_name": "Mérignac Av. de Peychotte avant Riaud", "raw_oneway": true, "raw_direction": "Sens Entrant", "raw_techno": "BOUCLE", "osm_name": "Avenue François Mitterrand", "osm_type": "secondary", "osm_lanes": null, "osm_oneway": "True", "osm_distance": 0.16447754534614831, "osm_maxspeed": 50.0, "osmid": 25744105.0 }, "geometry": { "type": "Point", "coordinates": [ -0.6209141, 44.8265605 ] } },
{ "type": "Feature", "properties": { "AAWT": 9399.0, "TR_AAWT": null, "savg": null, "raw_name": "Bordeaux Blvd G Pompidou après Despagnet", "raw_oneway": true, "raw_direction": "Sens Entrant", "raw_techno": "BOUCLE", "osm_name": "Boulevard Georges Pompidou", "osm_type": "secondary", "osm_lanes": 1.0, "osm_oneway": "True", "osm_distance": 0.10687428745455767, "osm_maxspeed": 50.0, "osmid": 186609922.0 }, "geometry": { "type": "Point", "coordinates": [ -0.6027345, 44.8308136 ] } },
{ "type": "Feature", "properties": { "AAWT": 6274.0, "TR_AAWT": null, "savg": null, "raw_name": "Bordeaux Rue Larminat après Rue Redon", "raw_oneway": true, "raw_direction": "Sens Entrant", "raw_techno": "BOUCLE", "osm_name": "Rue du Général de Larminat", "osm_type": "secondary", "osm_lanes": null, "osm_oneway": "True", "osm_distance": 0.25934127263156354, "osm_maxspeed": 50.0, "osmid": 80367875.0 }, "geometry": { "type": "Point", "coordinates": [ -0.5963175, 44.833267 ] } },
{ "type": "Feature", "properties": { "AAWT": 6409.0, "TR_AAWT": null, "savg": null, "raw_name": "Bordeaux 154 Rue d'Ornano après Héron", "raw_oneway": true, "raw_direction": "Sens Entrant", "raw_techno": "BOUCLE", "osm_name": "Rue d'Ornano", "osm_type": "secondary", "osm_lanes": 1.0, "osm_oneway": "True", "osm_distance": 0.3234068762548144, "osm_maxspeed": null, "osmid": 43938492.0 }, "geometry": { "type": "Point", "coordinates": [ -0.5902949, 44.8338478 ] } },
{ "type": "Feature", "properties": { "AAWT": 9802.0, "TR_AAWT": 424.0, "savg": 33.0, "raw_name": "Mérignac face 130 bis Av. de l'Yser", "raw_oneway": true, "raw_direction": "Sens Entrant", "raw_techno": "SIREDO", "osm_name": "Avenue de l'Yser", "osm_type": "secondary", "osm_lanes": null, "osm_oneway": "True", "osm_distance": 0.18835877413607494, "osm_maxspeed": null, "osmid": 432744963.0 }, "geometry": { "type": "Point", "coordinates": [ -0.6627416, 44.8419538 ] } },
{ "type": "Feature", "properties": { "AAWT": 4454.0, "TR_AAWT": 77.0, "savg": 43.0, "raw_name": "Talence Rue Vieille Tour Médoquine", "raw_oneway": true, "raw_direction": "Sens Entrant", "raw_techno": "SIREDO", "osm_name": "Avenue de la Vieille Tour", "osm_type": "tertiary", "osm_lanes": null, "osm_oneway": "False", "osm_distance": 1.7273895439881517, "osm_maxspeed": null, "osmid": 25608878.0 }, "geometry": { "type": "Point", "coordinates": [ -0.6005556, 44.8156522 ] } },
{ "type": "Feature", "properties": { "AAWT": 4429.0, "TR_AAWT": 22.0, "savg": 42.0, "raw_name": "Talence Rue Vieille Tour Médoquine", "raw_oneway": true, "raw_direction": "Sens Sortant", "raw_techno": "SIREDO", "osm_name": "Avenue de la Vieille Tour", "osm_type": "tertiary", "osm_lanes": null, "osm_oneway": null, "osm_distance": 2.3959923469333964, "osm_maxspeed": null, "osmid": 25862383.0 }, "geometry": { "type": "Point", "coordinates": [ -0.6006425, 44.816376 ] } },
{ "type": "Feature", "properties": { "AAWT": 2883.0, "TR_AAWT": null, "savg": null, "raw_name": "Bordeaux Rue Mouneyra après Dupeux", "raw_oneway": true, "raw_direction": "Sens Sortant", "raw_techno": "BOUCLE", "osm_name": "Rue Mouneyra", "osm_type": "residential", "osm_lanes": null, "osm_oneway": "True", "osm_distance": 0.13455758545962498, "osm_maxspeed": 30.0, "osmid": 245320925.0 }, "geometry": { "type": "Point", "coordinates": [ -0.5886214, 44.8304541 ] } },
{ "type": "Feature", "properties": { "AAWT": 11757.0, "TR_AAWT": null, "savg": null, "raw_name": "Bordeaux Béchade après Quintin", "raw_oneway": true, "raw_direction": "Sens Entrant", "raw_techno": "BOUCLE", "osm_name": "Rue de la Béchade", "osm_type": "tertiary", "osm_lanes": null, "osm_oneway": "False", "osm_distance": 2.808282416728372, "osm_maxspeed": null, "osmid": 373868911.0 }, "geometry": { "type": "Point", "coordinates": [ -0.5997032, 44.8239599 ] } },
{ "type": "Feature", "properties": { "AAWT": 11746.0, "TR_AAWT": null, "savg": null, "raw_name": "Bordeaux Blvd George V après Saignat", "raw_oneway": true, "raw_direction": "Boulevards Nord > Sud", "raw_techno": "BOUCLE", "osm_name": "Boulevard George V", "osm_type": "primary", "osm_lanes": null, "osm_oneway": "True", "osm_distance": 0.44625834672215281, "osm_maxspeed": 50.0, "osmid": 24056237.0 }, "geometry": { "type": "Point", "coordinates": [ -0.5923272, 44.8273029 ] } },
{ "type": "Feature", "properties": { "AAWT": 4361.0, "TR_AAWT": null, "savg": null, "raw_name": "Bordeaux Rue de Pessac après Audeguil", "raw_oneway": true, "raw_direction": "Sens Sortant", "raw_techno": "BOUCLE", "osm_name": "Rue de Pessac", "osm_type": "secondary", "osm_lanes": null, "osm_oneway": "True", "osm_distance": 3.0672376759426934, "osm_maxspeed": null, "osmid": 185675471.0 }, "geometry": { "type": "Point", "coordinates": [ -0.5864661, 44.8272679 ] } },
{ "type": "Feature", "properties": { "AAWT": 3878.0, "TR_AAWT": null, "savg": null, "raw_name": "Talence Cours Gambetta avant Lamartine", "raw_oneway": true, "raw_direction": "Sens Entrant", "raw_techno": "BOUCLE", "osm_name": "Cours Gambetta", "osm_type": "secondary", "osm_lanes": 1.0, "osm_oneway": "True", "osm_distance": 0.16971927650497434, "osm_maxspeed": 30.0, "osmid": 42458344.0 }, "geometry": { "type": "Point", "coordinates": [ -0.5882141, 44.8144599 ] } },
{ "type": "Feature", "properties": { "AAWT": 4756.0, "TR_AAWT": null, "savg": null, "raw_name": "Bordeaux Rue St Genès après Ségur", "raw_oneway": true, "raw_direction": "Sens Sortant", "raw_techno": "BOUCLE", "osm_name": "Rue de Saint-Genès", "osm_type": "tertiary", "osm_lanes": null, "osm_oneway": "True", "osm_distance": 0.77156720542932311, "osm_maxspeed": null, "osmid": 188077928.0 }, "geometry": { "type": "Point", "coordinates": [ -0.5818402, 44.8241215 ] } },
{ "type": "Feature", "properties": { "AAWT": 3160.0, "TR_AAWT": null, "savg": null, "raw_name": "Talence Cours Gambetta avant Combes", "raw_oneway": true, "raw_direction": "Sens Sortant", "raw_techno": "BOUCLE", "osm_name": "Cours Gambetta", "osm_type": "secondary", "osm_lanes": 1.0, "osm_oneway": "True", "osm_distance": 0.016870757344813452, "osm_maxspeed": 30.0, "osmid": 43576883.0 }, "geometry": { "type": "Point", "coordinates": [ -0.5837542, 44.8200844 ] } },
{ "type": "Feature", "properties": { "AAWT": 11951.0, "TR_AAWT": null, "savg": null, "raw_name": "Talence Boulevard George V", "raw_oneway": true, "raw_direction": "Sud > Nord", "raw_techno": "BOUCLE", "osm_name": "Boulevard George V", "osm_type": "primary", "osm_lanes": 2.0, "osm_oneway": "True", "osm_distance": 0.3393005477257664, "osm_maxspeed": null, "osmid": 49746787.0 }, "geometry": { "type": "Point", "coordinates": [ -0.5887159, 44.8249125 ] } },
{ "type": "Feature", "properties": { "AAWT": 3187.0, "TR_AAWT": 157.0, "savg": 27.0, "raw_name": "Bègles 99 cours Victor Hugo", "raw_oneway": true, "raw_direction": "Sens Entrant", "raw_techno": "SIREDO", "osm_name": "Cours Victor Hugo", "osm_type": "tertiary", "osm_lanes": null, "osm_oneway": null, "osm_distance": 1.3936946810156476, "osm_maxspeed": 30.0, "osmid": 23157783.0 }, "geometry": { "type": "Point", "coordinates": [ -0.5626195, 44.809918 ] } },
{ "type": "Feature", "properties": { "AAWT": 9988.0, "TR_AAWT": null, "savg": null, "raw_name": "Bordeaux Blvd Albert 1er après Cabié", "raw_oneway": true, "raw_direction": "Nord > Sud", "raw_techno": "BOUCLE", "osm_name": "Boulevard Albert 1er", "osm_type": "primary", "osm_lanes": 2.0, "osm_oneway": "True", "osm_distance": 0.40438008376285589, "osm_maxspeed": 50.0, "osmid": 183171401.0 }, "geometry": { "type": "Point", "coordinates": [ -0.5704251, 44.8143367 ] } },
{ "type": "Feature", "properties": { "AAWT": 11384.0, "TR_AAWT": null, "savg": null, "raw_name": "Bordeaux Blvd Albert 1er après Daguin", "raw_oneway": true, "raw_direction": "Sud > Nord", "raw_techno": "BOUCLE", "osm_name": "Boulevard Albert 1er", "osm_type": "primary", "osm_lanes": 2.0, "osm_oneway": "True", "osm_distance": 0.69853344767081016, "osm_maxspeed": 50.0, "osmid": 183268755.0 }, "geometry": { "type": "Point", "coordinates": [ -0.5616096, 44.812962 ] } },
{ "type": "Feature", "properties": { "AAWT": 5340.0, "TR_AAWT": null, "savg": null, "raw_name": "Bordeaux Cours de la Somme après Rue Brun", "raw_oneway": true, "raw_direction": "Sens Sortant", "raw_techno": "BOUCLE", "osm_name": "Cours de la Somme", "osm_type": "secondary", "osm_lanes": 2.0, "osm_oneway": null, "osm_distance": 2.955761147562896, "osm_maxspeed": 30.0, "osmid": 185627031.0 }, "geometry": { "type": "Point", "coordinates": [ -0.572279, 44.8167011 ] } },
{ "type": "Feature", "properties": { "AAWT": 8035.0, "TR_AAWT": null, "savg": null, "raw_name": "Bordeaux Blvd Roosevelt avant Toulouse", "raw_oneway": true, "raw_direction": "Nord > Sud", "raw_techno": "BOUCLE", "osm_name": "Boulevard du Président Franklin Roosevelt", "osm_type": "primary", "osm_lanes": 2.0, "osm_oneway": "True", "osm_distance": 1.0088072584865149, "osm_maxspeed": null, "osmid": 52076045.0 }, "geometry": { "type": "Point", "coordinates": [ -0.5753369, 44.8163712 ] } },
{ "type": "Feature", "properties": { "AAWT": 9725.0, "TR_AAWT": null, "savg": null, "raw_name": "Bordeaux Blvd Pierre 1er avant Hugo", "raw_oneway": true, "raw_direction": "Nord > Sud", "raw_techno": "BOUCLE", "osm_name": "Boulevard Godard", "osm_type": "primary", "osm_lanes": 2.0, "osm_oneway": "True", "osm_distance": 0.20045797157277156, "osm_maxspeed": 50.0, "osmid": 186153450.0 }, "geometry": { "type": "Point", "coordinates": [ -0.5881391, 44.8608605 ] } },
{ "type": "Feature", "properties": { "AAWT": 3504.0, "TR_AAWT": null, "savg": null, "raw_name": "Bordeaux Rue de Tivoli", "raw_oneway": true, "raw_direction": "Sens Sortant", "raw_techno": "BOUCLE", "osm_name": "Rue de Tivoli", "osm_type": "tertiary", "osm_lanes": 1.0, "osm_oneway": "True", "osm_distance": 0.21302475424962652, "osm_maxspeed": null, "osmid": 23371548.0 }, "geometry": { "type": "Point", "coordinates": [ -0.5889454, 44.8539933 ] } },
{ "type": "Feature", "properties": { "AAWT": 15967.0, "TR_AAWT": null, "savg": null, "raw_name": "Bordeaux Blvd Pierre 1er après Tivoli", "raw_oneway": true, "raw_direction": "Nord > Sud", "raw_techno": "BOUCLE", "osm_name": "Boulevard Pierre 1er", "osm_type": "primary", "osm_lanes": 2.0, "osm_oneway": "True", "osm_distance": 0.33990810158728596, "osm_maxspeed": 50.0, "osmid": 186144624.0 }, "geometry": { "type": "Point", "coordinates": [ -0.5914079, 44.8566805 ] } },
{ "type": "Feature", "properties": { "AAWT": 5802.0, "TR_AAWT": null, "savg": null, "raw_name": "Bordeaux Av. d'Eysines avant F. Faure", "raw_oneway": true, "raw_direction": "Sens Sortant", "raw_techno": "BOUCLE", "osm_name": "Avenue d'Eysines", "osm_type": "tertiary", "osm_lanes": null, "osm_oneway": "True", "osm_distance": 1.1309797006721054, "osm_maxspeed": 30.0, "osmid": 38070155.0 }, "geometry": { "type": "Point", "coordinates": [ -0.5970567, 44.8539436 ] } },
{ "type": "Feature", "properties": { "AAWT": 13250.0, "TR_AAWT": null, "savg": null, "raw_name": "Bordeaux Blvd Wilson après Eysines", "raw_oneway": true, "raw_direction": "Nord > Sud", "raw_techno": "BOUCLE", "osm_name": "Boulevard du Président Wilson", "osm_type": "primary", "osm_lanes": 2.0, "osm_oneway": "True", "osm_distance": 0.1430479724479205, "osm_maxspeed": 50.0, "osmid": 1356729101.0 }, "geometry": { "type": "Point", "coordinates": [ -0.5942512, 44.8528491 ] } },
{ "type": "Feature", "properties": { "AAWT": 22012.0, "TR_AAWT": null, "savg": null, "raw_name": "Bordeaux Blvd Wilson après Carnot", "raw_oneway": true, "raw_direction": "Sud > Nord", "raw_techno": "BOUCLE", "osm_name": "Boulevard du Président Wilson", "osm_type": "primary", "osm_lanes": 2.0, "osm_oneway": "True", "osm_distance": 0.53270987373459378, "osm_maxspeed": 50.0, "osmid": 194645285.0 }, "geometry": { "type": "Point", "coordinates": [ -0.5952205, 44.8513904 ] } },
{ "type": "Feature", "properties": { "AAWT": 13251.0, "TR_AAWT": null, "savg": null, "raw_name": "Bordeaux Blvd Godard avant Trébod", "raw_oneway": true, "raw_direction": "Sud > Nord", "raw_techno": "BOUCLE", "osm_name": "Boulevard Godard", "osm_type": "primary", "osm_lanes": 2.0, "osm_oneway": "True", "osm_distance": 0.7164119642861464, "osm_maxspeed": 50.0, "osmid": 117660896.0 }, "geometry": { "type": "Point", "coordinates": [ -0.5890063, 44.8597906 ] } },
{ "type": "Feature", "properties": { "AAWT": 13689.0, "TR_AAWT": null, "savg": null, "raw_name": "Bordeaux Blvd A. Daney avant Ravesies", "raw_oneway": true, "raw_direction": "Nord > Sud", "raw_techno": "BOUCLE", "osm_name": "Boulevard Alfred Daney", "osm_type": "primary", "osm_lanes": 2.0, "osm_oneway": "True", "osm_distance": 0.2481096488078747, "osm_maxspeed": 50.0, "osmid": 690416692.0 }, "geometry": { "type": "Point", "coordinates": [ -0.5714453, 44.867786 ] } },
{ "type": "Feature", "properties": { "AAWT": 5626.0, "TR_AAWT": null, "savg": null, "raw_name": "Bordeaux Quai Chartrons", "raw_oneway": true, "raw_direction": "Nord > Sud", "raw_techno": "BOUCLE", "osm_name": "Quai de Bacalan", "osm_type": "secondary", "osm_lanes": 1.0, "osm_oneway": "True", "osm_distance": 0.18550990851071941, "osm_maxspeed": 50.0, "osmid": 213107169.0 }, "geometry": { "type": "Point", "coordinates": [ -0.5571163, 44.8586404 ] } },
{ "type": "Feature", "properties": { "AAWT": 11920.0, "TR_AAWT": null, "savg": null, "raw_name": "Bordeaux Rue Faure", "raw_oneway": true, "raw_direction": "Sens Sortant", "raw_techno": "BOUCLE", "osm_name": null, "osm_type": "secondary_link", "osm_lanes": null, "osm_oneway": "True", "osm_distance": 2.9144408862286393, "osm_maxspeed": null, "osmid": 758956154.0 }, "geometry": { "type": "Point", "coordinates": [ -0.5633528, 44.8675934 ] } },
{ "type": "Feature", "properties": { "AAWT": 12306.0, "TR_AAWT": null, "savg": null, "raw_name": "Bordeaux Rue L. Faure", "raw_oneway": true, "raw_direction": "Sens Sortant", "raw_techno": "BOUCLE", "osm_name": "Rue Lucien Faure", "osm_type": "primary", "osm_lanes": 2.0, "osm_oneway": "True", "osm_distance": 2.510588524150446, "osm_maxspeed": 50.0, "osmid": 346639598.0 }, "geometry": { "type": "Point", "coordinates": [ -0.5542418, 44.8608542 ] } },
{ "type": "Feature", "properties": { "AAWT": 3315.0, "TR_AAWT": null, "savg": null, "raw_name": "Bordeaux Quai de Bacalan après L. Faure", "raw_oneway": true, "raw_direction": "Sud > Nord", "raw_techno": "BOUCLE", "osm_name": "Quai de Bacalan", "osm_type": "residential", "osm_lanes": null, "osm_oneway": "True", "osm_distance": 0.16879434751951941, "osm_maxspeed": null, "osmid": 1216773878.0 }, "geometry": { "type": "Point", "coordinates": [ -0.5533759, 44.8605133 ] } },
{ "type": "Feature", "properties": { "AAWT": 13638.0, "TR_AAWT": null, "savg": null, "raw_name": "Bordeaux Blvd Godard avant Jeanvrot", "raw_oneway": true, "raw_direction": "Sud > Nord", "raw_techno": "BOUCLE", "osm_name": "Boulevard Godard", "osm_type": "primary", "osm_lanes": 2.0, "osm_oneway": "True", "osm_distance": 0.5395597655903992, "osm_maxspeed": 50.0, "osmid": 186153454.0 }, "geometry": { "type": "Point", "coordinates": [ -0.5812467, 44.8637315 ] } },
{ "type": "Feature", "properties": { "AAWT": 5267.0, "TR_AAWT": null, "savg": null, "raw_name": "Bordeaux Boulevard Alfred Daney", "raw_oneway": true, "raw_direction": "Sens Sortant", "raw_techno": "BOUCLE", "osm_name": "Boulevard Alfred Daney", "osm_type": "secondary", "osm_lanes": null, "osm_oneway": "True", "osm_distance": 0.64252840305163328, "osm_maxspeed": 50.0, "osmid": 25761318.0 }, "geometry": { "type": "Point", "coordinates": [ -0.5639288, 44.8709142 ] } },
{ "type": "Feature", "properties": { "AAWT": 14025.0, "TR_AAWT": null, "savg": null, "raw_name": "Bordeaux Pont Chaban Delmas", "raw_oneway": true, "raw_direction": "Sens Entrant", "raw_techno": "BOUCLE", "osm_name": "Pont Jacques Chaban-Delmas", "osm_type": "primary", "osm_lanes": 2.0, "osm_oneway": "True", "osm_distance": 0.8956006136426552, "osm_maxspeed": 50.0, "osmid": 458508480.0 }, "geometry": { "type": "Point", "coordinates": [ -0.5497848, 44.856487 ] } },
{ "type": "Feature", "properties": { "AAWT": 10793.0, "TR_AAWT": null, "savg": null, "raw_name": "Bordeaux Brazza avant le pont", "raw_oneway": true, "raw_direction": "Nord > Sud", "raw_techno": "BOUCLE", "osm_name": "Quai de Brazza", "osm_type": "secondary", "osm_lanes": 1.0, "osm_oneway": "True", "osm_distance": 0.82458049036506742, "osm_maxspeed": null, "osmid": 253099393.0 }, "geometry": { "type": "Point", "coordinates": [ -0.5465688, 44.8577564 ] } },
{ "type": "Feature", "properties": { "AAWT": 14272.0, "TR_AAWT": null, "savg": null, "raw_name": "Bordeaux Pont Chaban Delmas", "raw_oneway": true, "raw_direction": "Sens Sortant", "raw_techno": "BOUCLE", "osm_name": "Pont Jacques Chaban-Delmas", "osm_type": "primary", "osm_lanes": 2.0, "osm_oneway": "True", "osm_distance": 3.1842749965197781, "osm_maxspeed": 50.0, "osmid": 46120915.0 }, "geometry": { "type": "Point", "coordinates": [ -0.5535621, 44.8599429 ] } },
{ "type": "Feature", "properties": { "AAWT": 8837.0, "TR_AAWT": null, "savg": null, "raw_name": "Le Bouscat Allée de Boutaut", "raw_oneway": true, "raw_direction": "Sens Entrant", "raw_techno": "BOUCLE", "osm_name": "Allée de Boutaut", "osm_type": "secondary", "osm_lanes": 1.0, "osm_oneway": "True", "osm_distance": 0.27133254480460145, "osm_maxspeed": 30.0, "osmid": 196116946.0 }, "geometry": { "type": "Point", "coordinates": [ -0.5759689, 44.8672419 ] } },
{ "type": "Feature", "properties": { "AAWT": 7208.0, "TR_AAWT": null, "savg": null, "raw_name": "Bordeaux Allée de Boutaut", "raw_oneway": true, "raw_direction": "Sens Sortant", "raw_techno": "BOUCLE", "osm_name": "Allée de Boutaut", "osm_type": "secondary", "osm_lanes": 2.0, "osm_oneway": "True", "osm_distance": 0.36900147280691292, "osm_maxspeed": 30.0, "osmid": 1178059213.0 }, "geometry": { "type": "Point", "coordinates": [ -0.5756295, 44.8664314 ] } },
{ "type": "Feature", "properties": { "AAWT": 1006.0, "TR_AAWT": null, "savg": null, "raw_name": "Bordeaux Av. E. Counord après Godard", "raw_oneway": true, "raw_direction": "Sens Sortant", "raw_techno": "BOUCLE", "osm_name": "Avenue Émile Counord", "osm_type": "residential", "osm_lanes": null, "osm_oneway": "True", "osm_distance": 0.089883956076323643, "osm_maxspeed": 30.0, "osmid": 23227601.0 }, "geometry": { "type": "Point", "coordinates": [ -0.5744998, 44.8554175 ] } },
{ "type": "Feature", "properties": { "AAWT": 2945.0, "TR_AAWT": null, "savg": null, "raw_name": "Bordeaux Martinique vers quais", "raw_oneway": true, "raw_direction": "Centre Ville Sortant", "raw_techno": "BOUCLE", "osm_name": "Cours de la Martinique", "osm_type": "tertiary", "osm_lanes": null, "osm_oneway": null, "osm_distance": 1.5574882919283333, "osm_maxspeed": 50.0, "osmid": 163984524.0 }, "geometry": { "type": "Point", "coordinates": [ -0.5710787, 44.8537514 ] } },
{ "type": "Feature", "properties": { "AAWT": 7330.0, "TR_AAWT": null, "savg": null, "raw_name": "Bordeaux Cours Portal avant Doumer", "raw_oneway": true, "raw_direction": "Nord > Sud", "raw_techno": "BOUCLE", "osm_name": "Cours Portal", "osm_type": "secondary", "osm_lanes": 2.0, "osm_oneway": null, "osm_distance": 2.2351423303602043, "osm_maxspeed": null, "osmid": 1019606019.0 }, "geometry": { "type": "Point", "coordinates": [ -0.5726344, 44.8537214 ] } },
{ "type": "Feature", "properties": { "AAWT": 5338.0, "TR_AAWT": null, "savg": null, "raw_name": "Pessac 190 Av. Jean Jaurès", "raw_oneway": true, "raw_direction": "Sens Entrant", "raw_techno": "SIREDO", "osm_name": "Avenue Jean Jaurès", "osm_type": "primary", "osm_lanes": 2.0, "osm_oneway": null, "osm_distance": 1.0688056485296415, "osm_maxspeed": 50.0, "osmid": 949120256.0 }, "geometry": { "type": "Point", "coordinates": [ -0.6113344, 44.8143854 ] } },
{ "type": "Feature", "properties": { "AAWT": 6188.0, "TR_AAWT": 294.0, "savg": 37.0, "raw_name": "Pessac 9 Av. de Madran", "raw_oneway": true, "raw_direction": "Sens Entrant", "raw_techno": "SIREDO", "osm_name": "Avenue de Madran", "osm_type": "secondary", "osm_lanes": null, "osm_oneway": null, "osm_distance": 2.7485837266055153, "osm_maxspeed": 50.0, "osmid": 24551260.0 }, "geometry": { "type": "Point", "coordinates": [ -0.6504409, 44.8054054 ] } },
{ "type": "Feature", "properties": { "AAWT": 5824.0, "TR_AAWT": null, "savg": null, "raw_name": "Pessac Av. Jean Jaurès", "raw_oneway": true, "raw_direction": "Sens Sortant", "raw_techno": "BOUCLE", "osm_name": "Avenue Jean Jaurès", "osm_type": "primary", "osm_lanes": 2.0, "osm_oneway": null, "osm_distance": 1.6082747051875068, "osm_maxspeed": 50.0, "osmid": 1078568612.0 }, "geometry": { "type": "Point", "coordinates": [ -0.6152683, 44.8124608 ] } },
{ "type": "Feature", "properties": { "AAWT": 5461.0, "TR_AAWT": null, "savg": null, "raw_name": "Pessac Rue Chateaubriand aprè Lamartine", "raw_oneway": true, "raw_direction": "Sud > Nord", "raw_techno": "BOUCLE", "osm_name": "Rue Châteaubriand", "osm_type": "secondary", "osm_lanes": 2.0, "osm_oneway": "False", "osm_distance": 6.1384070449952821, "osm_maxspeed": null, "osmid": 980868452.0 }, "geometry": { "type": "Point", "coordinates": [ -0.6264487, 44.805871 ] } },
{ "type": "Feature", "properties": { "AAWT": 4001.0, "TR_AAWT": null, "savg": null, "raw_name": "Pessac Av. Jean Jaurès après Chiquet", "raw_oneway": true, "raw_direction": "Sens Entrant", "raw_techno": "BOUCLE", "osm_name": "Avenue Jean Jaurès", "osm_type": "primary", "osm_lanes": null, "osm_oneway": "True", "osm_distance": 0.4575392823666794, "osm_maxspeed": null, "osmid": 1351616735.0 }, "geometry": { "type": "Point", "coordinates": [ -0.6253713, 44.8081266 ] } },
{ "type": "Feature", "properties": { "AAWT": 3254.0, "TR_AAWT": null, "savg": null, "raw_name": "Pessac Rue Pénard après Echoppes", "raw_oneway": true, "raw_direction": "Sens Sortant", "raw_techno": "BOUCLE", "osm_name": "Avenue du Docteur Nancel Pénard", "osm_type": "secondary", "osm_lanes": null, "osm_oneway": null, "osm_distance": 1.4380364312484857, "osm_maxspeed": 50.0, "osmid": 24565886.0 }, "geometry": { "type": "Point", "coordinates": [ -0.6213777, 44.8106915 ] } },
{ "type": "Feature", "properties": { "AAWT": 2251.0, "TR_AAWT": null, "savg": null, "raw_name": "Pessac Cordier après Cimetière", "raw_oneway": true, "raw_direction": "Sens Sortant", "raw_techno": "BOUCLE", "osm_name": "Avenue Jean Cordier", "osm_type": "tertiary", "osm_lanes": 2.0, "osm_oneway": null, "osm_distance": 2.4323873561212714, "osm_maxspeed": null, "osmid": 24552558.0 }, "geometry": { "type": "Point", "coordinates": [ -0.6256666, 44.8105199 ] } },
{ "type": "Feature", "properties": { "AAWT": 6108.0, "TR_AAWT": 289.0, "savg": 19.0, "raw_name": "Talence Libération Roul Peixotto", "raw_oneway": true, "raw_direction": "Sens Entrant", "raw_techno": "SIREDO", "osm_name": "Cours de la Libération", "osm_type": "secondary", "osm_lanes": 1.0, "osm_oneway": "True", "osm_distance": 0.13699331842932413, "osm_maxspeed": null, "osmid": 590831323.0 }, "geometry": { "type": "Point", "coordinates": [ -0.591622, 44.8069661 ] } },
{ "type": "Feature", "properties": { "AAWT": 5065.0, "TR_AAWT": null, "savg": null, "raw_name": "Talence Cours Gambetta avant Rue Mirabeau", "raw_oneway": true, "raw_direction": "Sens Sortant", "raw_techno": "BOUCLE", "osm_name": "Cours Gambetta", "osm_type": "secondary", "osm_lanes": 1.0, "osm_oneway": "True", "osm_distance": 0.29944964812332231, "osm_maxspeed": null, "osmid": 878399373.0 }, "geometry": { "type": "Point", "coordinates": [ -0.5895382, 44.8136792 ] } },
{ "type": "Feature", "properties": { "AAWT": 7531.0, "TR_AAWT": null, "savg": null, "raw_name": "Talence 455 Cours de la Libération", "raw_oneway": true, "raw_direction": "Sens Entrant", "raw_techno": "BOUCLE", "osm_name": "Cours de la Libération", "osm_type": "secondary", "osm_lanes": 1.0, "osm_oneway": "True", "osm_distance": 0.02279279836624969, "osm_maxspeed": 30.0, "osmid": 500911769.0 }, "geometry": { "type": "Point", "coordinates": [ -0.5936051, 44.8020646 ] } },
{ "type": "Feature", "properties": { "AAWT": 5883.0, "TR_AAWT": null, "savg": null, "raw_name": "Talence Libération après Suzon", "raw_oneway": true, "raw_direction": "Sens Entrant", "raw_techno": "BOUCLE", "osm_name": "Cours de la Libération", "osm_type": "secondary", "osm_lanes": 1.0, "osm_oneway": "True", "osm_distance": 0.49406166008565439, "osm_maxspeed": null, "osmid": 42457312.0 }, "geometry": { "type": "Point", "coordinates": [ -0.591116, 44.8111239 ] } },
{ "type": "Feature", "properties": { "AAWT": 4100.0, "TR_AAWT": 162.0, "savg": 47.0, "raw_name": "Talence av de Thouars (face au château)", "raw_oneway": true, "raw_direction": "Sens Sortant", "raw_techno": "SIREDO", "osm_name": "Avenue de Thouars", "osm_type": "tertiary", "osm_lanes": 2.0, "osm_oneway": null, "osm_distance": 1.293175358122008, "osm_maxspeed": null, "osmid": 597906295.0 }, "geometry": { "type": "Point", "coordinates": [ -0.5907097, 44.7886155 ] } },
{ "type": "Feature", "properties": { "AAWT": 1755.0, "TR_AAWT": 32.0, "savg": 33.0, "raw_name": "Talence 42 Rue Lamartine", "raw_oneway": true, "raw_direction": "Sens Entrant", "raw_techno": "SIREDO", "osm_name": "Rue Lamartine", "osm_type": "tertiary", "osm_lanes": 2.0, "osm_oneway": "False", "osm_distance": 1.8125530505485243, "osm_maxspeed": 30.0, "osmid": 291450286.0 }, "geometry": { "type": "Point", "coordinates": [ -0.5865581, 44.8132443 ] } },
{ "type": "Feature", "properties": { "AAWT": 6708.0, "TR_AAWT": 500.0, "savg": 36.0, "raw_name": "Villenave d'Ornon 335 rte Toulouse", "raw_oneway": true, "raw_direction": "Sens Sortant", "raw_techno": "SIREDO", "osm_name": "Route de Toulouse", "osm_type": "primary", "osm_lanes": 2.0, "osm_oneway": "False", "osm_distance": 1.9636996460910729, "osm_maxspeed": 50.0, "osmid": 163984491.0 }, "geometry": { "type": "Point", "coordinates": [ -0.5709667, 44.8018224 ] } },
{ "type": "Feature", "properties": { "AAWT": 3888.0, "TR_AAWT": null, "savg": null, "raw_name": "Villenave d'Ornon Labro vers Bègles", "raw_oneway": true, "raw_direction": "Sens Entrant", "raw_techno": "BOUCLE", "osm_name": "Chemin Alexis Labro", "osm_type": "tertiary", "osm_lanes": 2.0, "osm_oneway": null, "osm_distance": 2.171467288744279, "osm_maxspeed": 30.0, "osmid": 25722952.0 }, "geometry": { "type": "Point", "coordinates": [ -0.5660387, 44.7877349 ] } },
{ "type": "Feature", "properties": { "AAWT": 11291.0, "TR_AAWT": null, "savg": null, "raw_name": "Villenave d'Ornon bretelle sortie int.", "raw_oneway": true, "raw_direction": "Bretelle sortie rocade intérieure", "raw_techno": "BOUCLE", "osm_name": null, "osm_type": "motorway_link", "osm_lanes": 2.0, "osm_oneway": "True", "osm_distance": 0.11269957986396516, "osm_maxspeed": 70.0, "osmid": 754113708.0 }, "geometry": { "type": "Point", "coordinates": [ -0.5642516, 44.778297 ] } },
{ "type": "Feature", "properties": { "AAWT": 7463.0, "TR_AAWT": null, "savg": null, "raw_name": "Bègles 168 rte de Toulouse après Sévène", "raw_oneway": true, "raw_direction": "Sens Entrant", "raw_techno": "BOUCLE", "osm_name": "Route de Toulouse", "osm_type": "primary", "osm_lanes": 2.0, "osm_oneway": "False", "osm_distance": 3.9446910014576191, "osm_maxspeed": 50.0, "osmid": 880413710.0 }, "geometry": { "type": "Point", "coordinates": [ -0.5738578, 44.8087482 ] } },
{ "type": "Feature", "properties": { "AAWT": 7094.0, "TR_AAWT": null, "savg": null, "raw_name": "Villenave d'Ornon Toulouse Chatry/Labro", "raw_oneway": true, "raw_direction": "Sens Sortant", "raw_techno": "BOUCLE", "osm_name": "Route de Toulouse", "osm_type": "primary", "osm_lanes": 2.0, "osm_oneway": null, "osm_distance": 3.7757974893379442, "osm_maxspeed": 50.0, "osmid": 411641053.0 }, "geometry": { "type": "Point", "coordinates": [ -0.5666828, 44.7884605 ] } },
{ "type": "Feature", "properties": { "AAWT": 6661.0, "TR_AAWT": null, "savg": null, "raw_name": "Villenave d'Ornon Av des Pyrénées", "raw_oneway": true, "raw_direction": "Sens Entrant", "raw_techno": "BOUCLE", "osm_name": null, "osm_type": "primary", "osm_lanes": 3.0, "osm_oneway": "True", "osm_distance": 2.2679743178499394, "osm_maxspeed": 50.0, "osmid": 589953723.0 }, "geometry": { "type": "Point", "coordinates": [ -0.5660716, 44.7800108 ] } },
{ "type": "Feature", "properties": { "AAWT": 7100.0, "TR_AAWT": null, "savg": null, "raw_name": "Villenave d'Ornon Leclerc après rocade", "raw_oneway": true, "raw_direction": "Sens Entrant", "raw_techno": "BOUCLE", "osm_name": "Avenue du Maréchal Leclerc", "osm_type": "tertiary", "osm_lanes": 2.0, "osm_oneway": null, "osm_distance": 1.8615619432170867, "osm_maxspeed": 50.0, "osmid": 904043897.0 }, "geometry": { "type": "Point", "coordinates": [ -0.5682288, 44.7811573 ] } },
{ "type": "Feature", "properties": { "AAWT": 10203.0, "TR_AAWT": null, "savg": null, "raw_name": "Bordeaux 17 Quai Louis XVIII Ferrère", "raw_oneway": true, "raw_direction": "Nord > Sud", "raw_techno": "BOUCLE", "osm_name": "Quai Louis XVIII", "osm_type": "secondary", "osm_lanes": 2.0, "osm_oneway": "True", "osm_distance": 0.22823634047428121, "osm_maxspeed": 50.0, "osmid": 683887233.0 }, "geometry": { "type": "Point", "coordinates": [ -0.5707219, 44.8479412 ] } },
{ "type": "Feature", "properties": { "AAWT": 8402.0, "TR_AAWT": null, "savg": null, "raw_name": "Bordeaux Quai des Chartrons", "raw_oneway": true, "raw_direction": "Nord > Sud", "raw_techno": "BOUCLE", "osm_name": "Quai des Chartrons", "osm_type": "secondary", "osm_lanes": 2.0, "osm_oneway": "True", "osm_distance": 0.06887791081742646, "osm_maxspeed": 50.0, "osmid": 195939203.0 }, "geometry": { "type": "Point", "coordinates": [ -0.5702856, 44.8492229 ] } },
{ "type": "Feature", "properties": { "AAWT": 8719.0, "TR_AAWT": null, "savg": null, "raw_name": "Bordeaux Quai Chartrons apres Hangar 14", "raw_oneway": true, "raw_direction": "Nord > Sud", "raw_techno": "BOUCLE", "osm_name": "Quai des Chartrons", "osm_type": "secondary", "osm_lanes": 2.0, "osm_oneway": "True", "osm_distance": 0.20779061285355019, "osm_maxspeed": 50.0, "osmid": 195939203.0 }, "geometry": { "type": "Point", "coordinates": [ -0.5657623, 44.8541722 ] } },
{ "type": "Feature", "properties": { "AAWT": 22165.0, "TR_AAWT": null, "savg": null, "raw_name": "Bordeaux Quai Richelieu  Cailhau/Bourse", "raw_oneway": true, "raw_direction": "Sud > Nord", "raw_techno": "BOUCLE", "osm_name": "Quai Richelieu", "osm_type": "secondary", "osm_lanes": 2.0, "osm_oneway": "True", "osm_distance": 0.055896903078271533, "osm_maxspeed": 50.0, "osmid": 24521357.0 }, "geometry": { "type": "Point", "coordinates": [ -0.5680194, 44.8393569 ] } },
{ "type": "Feature", "properties": { "AAWT": 8806.0, "TR_AAWT": null, "savg": null, "raw_name": "Bordeaux Quai Chartrons ap Martinique", "raw_oneway": true, "raw_direction": "Nord > Sud", "raw_techno": "BOUCLE", "osm_name": "Quai des Chartrons", "osm_type": "secondary", "osm_lanes": 2.0, "osm_oneway": "True", "osm_distance": 0.37963516341499581, "osm_maxspeed": 50.0, "osmid": 195939203.0 }, "geometry": { "type": "Point", "coordinates": [ -0.5684556, 44.8518342 ] } },
{ "type": "Feature", "properties": { "AAWT": 3538.0, "TR_AAWT": 67.0, "savg": 30.0, "raw_name": "Le Bouscat 58 Av. de Tivoli", "raw_oneway": true, "raw_direction": "Sens Entrant", "raw_techno": "SIREDO", "osm_name": "Avenue de Tivoli", "osm_type": "tertiary", "osm_lanes": 2.0, "osm_oneway": "False", "osm_distance": 1.5194481972940634, "osm_maxspeed": 50.0, "osmid": 23681015.0 }, "geometry": { "type": "Point", "coordinates": [ -0.592366, 44.8596079 ] } },
{ "type": "Feature", "properties": { "AAWT": 2159.0, "TR_AAWT": null, "savg": null, "raw_name": "Le Bouscat Av. de la Libération", "raw_oneway": true, "raw_direction": null, "raw_techno": "BOUCLE", "osm_name": "Avenue de la Libération", "osm_type": "secondary", "osm_lanes": null, "osm_oneway": "True", "osm_distance": 5.2628579058075244, "osm_maxspeed": 30.0, "osmid": 194643851.0 }, "geometry": { "type": "Point", "coordinates": [ -0.6031922, 44.8634045 ] } },
{ "type": "Feature", "properties": { "AAWT": 5654.0, "TR_AAWT": null, "savg": null, "raw_name": "Cenon Av. de Paris après 4 Pavillons", "raw_oneway": true, "raw_direction": "Sens Sortant", "raw_techno": "BOUCLE", "osm_name": "Avenue de Paris", "osm_type": "secondary", "osm_lanes": null, "osm_oneway": "True", "osm_distance": 0.58036627241815508, "osm_maxspeed": null, "osmid": 36235004.0 }, "geometry": { "type": "Point", "coordinates": [ -0.5129006, 44.8674405 ] } },
{ "type": "Feature", "properties": { "AAWT": 5064.0, "TR_AAWT": null, "savg": null, "raw_name": "Lormont Av. de Paris vers 4 Pavillons", "raw_oneway": true, "raw_direction": "Nord > Sud", "raw_techno": "BOUCLE", "osm_name": "Avenue de Paris", "osm_type": "secondary", "osm_lanes": null, "osm_oneway": "True", "osm_distance": 0.1334276280095682, "osm_maxspeed": null, "osmid": 433292033.0 }, "geometry": { "type": "Point", "coordinates": [ -0.5127086, 44.8686299 ] } },
{ "type": "Feature", "properties": { "AAWT": 11814.0, "TR_AAWT": null, "savg": null, "raw_name": "Eysines Av. du Médoc après G. Saux", "raw_oneway": true, "raw_direction": "Sens Sortant", "raw_techno": "BOUCLE", "osm_name": "Avenue du Médoc", "osm_type": "primary", "osm_lanes": 2.0, "osm_oneway": null, "osm_distance": 1.9191176165944883, "osm_maxspeed": 50.0, "osmid": 771251362.0 }, "geometry": { "type": "Point", "coordinates": [ -0.6319957, 44.8832834 ] } },
{ "type": "Feature", "properties": { "AAWT": 9452.0, "TR_AAWT": null, "savg": null, "raw_name": "Bruges Rte du Médocavant Croix du Vigean", "raw_oneway": true, "raw_direction": "Sens Sortant", "raw_techno": "BOUCLE", "osm_name": "Route du Médoc", "osm_type": "primary", "osm_lanes": 2.0, "osm_oneway": "True", "osm_distance": 1.3797794800360068, "osm_maxspeed": 50.0, "osmid": 602241244.0 }, "geometry": { "type": "Point", "coordinates": [ -0.6283048, 44.8808416 ] } },
{ "type": "Feature", "properties": { "AAWT": 4912.0, "TR_AAWT": null, "savg": null, "raw_name": "Eysines Rte de Pauillac avant Médoc", "raw_oneway": true, "raw_direction": "Sens Entrant", "raw_techno": "BOUCLE", "osm_name": "Route de Pauillac", "osm_type": "secondary", "osm_lanes": 3.0, "osm_oneway": null, "osm_distance": 1.7704288252032585, "osm_maxspeed": 50.0, "osmid": 221251422.0 }, "geometry": { "type": "Point", "coordinates": [ -0.6369396, 44.8869502 ] } },
{ "type": "Feature", "properties": { "AAWT": 4507.0, "TR_AAWT": null, "savg": null, "raw_name": "Eysines Av. du Médoc avant rte Pauillac", "raw_oneway": true, "raw_direction": "Sens Entrant", "raw_techno": "BOUCLE", "osm_name": "Avenue du Médoc", "osm_type": "primary", "osm_lanes": 2.0, "osm_oneway": null, "osm_distance": 4.0868808837444019, "osm_maxspeed": 50.0, "osmid": 769081817.0 }, "geometry": { "type": "Point", "coordinates": [ -0.6381169, 44.8856377 ] } },
{ "type": "Feature", "properties": { "AAWT": 8208.0, "TR_AAWT": null, "savg": null, "raw_name": "Bordeaux Allée de Boutaut avant Laroque", "raw_oneway": true, "raw_direction": "Sens Sortant", "raw_techno": "BOUCLE", "osm_name": "Allée de Boutaut", "osm_type": "secondary", "osm_lanes": 2.0, "osm_oneway": "True", "osm_distance": 0.022698394263790417, "osm_maxspeed": null, "osmid": 196116945.0 }, "geometry": { "type": "Point", "coordinates": [ -0.576322, 44.8727517 ] } },
{ "type": "Feature", "properties": { "AAWT": 1898.0, "TR_AAWT": null, "savg": null, "raw_name": "Bordeaux Quebec avant Royer", "raw_oneway": true, "raw_direction": "Nord > Sud", "raw_techno": "BOUCLE", "osm_name": "Cours de Québec", "osm_type": "residential", "osm_lanes": null, "osm_oneway": "True", "osm_distance": 0.35052821708368836, "osm_maxspeed": 30.0, "osmid": 773721469.0 }, "geometry": { "type": "Point", "coordinates": [ -0.5699045, 44.8823121 ] } },
{ "type": "Feature", "properties": { "AAWT": 2865.0, "TR_AAWT": null, "savg": null, "raw_name": "Bordeaux Domergue S>N avant rocade", "raw_oneway": true, "raw_direction": "Sud > Nord", "raw_techno": "BOUCLE", "osm_name": "Avenue Marcel Dassault", "osm_type": "tertiary", "osm_lanes": 2.0, "osm_oneway": "False", "osm_distance": 1.9654008899808517, "osm_maxspeed": 50.0, "osmid": 1233224560.0 }, "geometry": { "type": "Point", "coordinates": [ -0.5715284, 44.8846531 ] } },
{ "type": "Feature", "properties": { "AAWT": 4657.0, "TR_AAWT": null, "savg": null, "raw_name": "Bordeaux Vélodrome N>S", "raw_oneway": true, "raw_direction": "Nord > Sud", "raw_techno": "BOUCLE", "osm_name": "Cours Charles Bricaud", "osm_type": "secondary", "osm_lanes": 1.0, "osm_oneway": "True", "osm_distance": 0.099415160785379333, "osm_maxspeed": null, "osmid": 1178721110.0 }, "geometry": { "type": "Point", "coordinates": [ -0.5658184, 44.8970393 ] } },
{ "type": "Feature", "properties": { "AAWT": 4406.0, "TR_AAWT": null, "savg": null, "raw_name": "Bordeaux Bricaud S>N avant vélodrome", "raw_oneway": true, "raw_direction": "Sud > Nord", "raw_techno": "BOUCLE", "osm_name": "Cours Charles Bricaud", "osm_type": "secondary", "osm_lanes": null, "osm_oneway": "True", "osm_distance": 2.7840301296797114, "osm_maxspeed": null, "osmid": 1178720179.0 }, "geometry": { "type": "Point", "coordinates": [ -0.5656011, 44.8945411 ] } },
{ "type": "Feature", "properties": { "AAWT": 3076.0, "TR_AAWT": null, "savg": null, "raw_name": "Bordeaux Brunet  apres Brandenbourg", "raw_oneway": true, "raw_direction": "Sud > Nord", "raw_techno": "BOUCLE", "osm_name": "Rue Joseph Brunet", "osm_type": "residential", "osm_lanes": null, "osm_oneway": "False", "osm_distance": 1.6508264447141141, "osm_maxspeed": 50.0, "osmid": 23157928.0 }, "geometry": { "type": "Point", "coordinates": [ -0.545142, 44.875652 ] } },
{ "type": "Feature", "properties": { "AAWT": 2701.0, "TR_AAWT": null, "savg": null, "raw_name": "Bordeaux Achard niveau Pourmann", "raw_oneway": true, "raw_direction": "Sens Sortant", "raw_techno": "BOUCLE", "osm_name": "Rue Achard", "osm_type": "tertiary", "osm_lanes": null, "osm_oneway": "True", "osm_distance": 0.21935520546899767, "osm_maxspeed": null, "osmid": 257031723.0 }, "geometry": { "type": "Point", "coordinates": [ -0.5482287, 44.8676196 ] } },
{ "type": "Feature", "properties": { "AAWT": 5527.0, "TR_AAWT": null, "savg": null, "raw_name": "Bordeaux Av. 40 Journaux avant Tobeen", "raw_oneway": true, "raw_direction": "Sud > Nord", "raw_techno": "BOUCLE", "osm_name": "Avenue des Français Libres", "osm_type": "tertiary", "osm_lanes": null, "osm_oneway": "True", "osm_distance": 0.42581888486775243, "osm_maxspeed": null, "osmid": 596052754.0 }, "geometry": { "type": "Point", "coordinates": [ -0.5690752, 44.8756901 ] } },
{ "type": "Feature", "properties": { "AAWT": 2475.0, "TR_AAWT": null, "savg": null, "raw_name": "Bègles Moga  après Durcy", "raw_oneway": true, "raw_direction": "Sens Entrant", "raw_techno": "BOUCLE", "osm_name": "Rue des Frères Moga", "osm_type": "residential", "osm_lanes": null, "osm_oneway": "True", "osm_distance": 0.469730594319683, "osm_maxspeed": 50.0, "osmid": 256985772.0 }, "geometry": { "type": "Point", "coordinates": [ -0.5512679, 44.7993814 ] } },
{ "type": "Feature", "properties": { "AAWT": 5354.0, "TR_AAWT": 270.0, "savg": 45.0, "raw_name": "Pessac Av. Haut-Lévêque", "raw_oneway": true, "raw_direction": "Sens Entrant", "raw_techno": "SIREDO", "osm_name": "Avenue du Haut-Lévêque", "osm_type": "secondary", "osm_lanes": null, "osm_oneway": "True", "osm_distance": 0.053310205950783437, "osm_maxspeed": 50.0, "osmid": 581155784.0 }, "geometry": { "type": "Point", "coordinates": [ -0.6603476, 44.7960263 ] } },
{ "type": "Feature", "properties": { "AAWT": 7280.0, "TR_AAWT": null, "savg": null, "raw_name": "Pessac Av. Leclerc avant Félix Faure", "raw_oneway": true, "raw_direction": "Sens Entrant", "raw_techno": "BOUCLE", "osm_name": "Avenue du Général Leclerc", "osm_type": "primary", "osm_lanes": null, "osm_oneway": null, "osm_distance": 0.9847415299080331, "osm_maxspeed": 50.0, "osmid": 22929439.0 }, "geometry": { "type": "Point", "coordinates": [ -0.6710984, 44.7930328 ] } },
{ "type": "Feature", "properties": { "AAWT": 7439.0, "TR_AAWT": null, "savg": null, "raw_name": "Pessac Av. Leclerc après Meyraud", "raw_oneway": true, "raw_direction": "Sens Sortant", "raw_techno": "BOUCLE", "osm_name": "Avenue du Général Leclerc", "osm_type": "primary", "osm_lanes": null, "osm_oneway": "True", "osm_distance": 0.66939007581202481, "osm_maxspeed": 50.0, "osmid": 580826392.0 }, "geometry": { "type": "Point", "coordinates": [ -0.6656195, 44.7973367 ] } },
{ "type": "Feature", "properties": { "AAWT": 8036.0, "TR_AAWT": null, "savg": null, "raw_name": "Pessac Av. Leclerc avant Meyraud", "raw_oneway": true, "raw_direction": "Sens Entrant", "raw_techno": "BOUCLE", "osm_name": "Avenue du Général Leclerc", "osm_type": "primary", "osm_lanes": null, "osm_oneway": "True", "osm_distance": 0.57259008109582521, "osm_maxspeed": 50.0, "osmid": 258642021.0 }, "geometry": { "type": "Point", "coordinates": [ -0.6657445, 44.7971678 ] } },
{ "type": "Feature", "properties": { "AAWT": 6878.0, "TR_AAWT": null, "savg": null, "raw_name": "Pessac Pasteur avant l'Alouette", "raw_oneway": true, "raw_direction": "Sens Sortant", "raw_techno": "BOUCLE", "osm_name": "Avenue Pasteur", "osm_type": "primary", "osm_lanes": null, "osm_oneway": "True", "osm_distance": 1.6761718310724647, "osm_maxspeed": 50.0, "osmid": 258642026.0 }, "geometry": { "type": "Point", "coordinates": [ -0.6619426, 44.7996996 ] } },
{ "type": "Feature", "properties": { "AAWT": 8597.0, "TR_AAWT": null, "savg": null, "raw_name": "Pessac Av. Leclerc après Félix Faure", "raw_oneway": true, "raw_direction": "Sens Sortant", "raw_techno": "BOUCLE", "osm_name": "Avenue du Général Leclerc", "osm_type": "primary", "osm_lanes": null, "osm_oneway": null, "osm_distance": 3.6556928179685122, "osm_maxspeed": 50.0, "osmid": 512108875.0 }, "geometry": { "type": "Point", "coordinates": [ -0.668817, 44.7948634 ] } },
{ "type": "Feature", "properties": { "AAWT": 5109.0, "TR_AAWT": null, "savg": null, "raw_name": "Pessa Av. du bourgailh après Socrate", "raw_oneway": true, "raw_direction": "Nord > Sud", "raw_techno": "BOUCLE", "osm_name": "Avenue du Bourgailh", "osm_type": "secondary", "osm_lanes": 2.0, "osm_oneway": null, "osm_distance": 3.2655702962821413, "osm_maxspeed": 50.0, "osmid": 1180430969.0 }, "geometry": { "type": "Point", "coordinates": [ -0.6626396, 44.8087492 ] } },
{ "type": "Feature", "properties": { "AAWT": 4807.0, "TR_AAWT": null, "savg": null, "raw_name": "Pessac Rue des Anciens de l'AFN", "raw_oneway": true, "raw_direction": "Nord > Sud", "raw_techno": "BOUCLE", "osm_name": "Avenue de Monbalon", "osm_type": "residential", "osm_lanes": 2.0, "osm_oneway": null, "osm_distance": 0.80099280871437872, "osm_maxspeed": 50.0, "osmid": 363504097.0 }, "geometry": { "type": "Point", "coordinates": [ -0.6647268, 44.8027867 ] } },
{ "type": "Feature", "properties": { "AAWT": 3313.0, "TR_AAWT": 83.0, "savg": 50.0, "raw_name": "Artigues Blvd de Feydeau", "raw_oneway": true, "raw_direction": "Sens Sortant", "raw_techno": "SIREDO", "osm_name": "Boulevard de Feydeau", "osm_type": "secondary", "osm_lanes": 2.0, "osm_oneway": null, "osm_distance": 1.5435883077073322, "osm_maxspeed": 30.0, "osmid": 24009227.0 }, "geometry": { "type": "Point", "coordinates": [ -0.500258, 44.8483119 ] } },
{ "type": "Feature", "properties": { "AAWT": 15876.0, "TR_AAWT": 461.0, "savg": 46.0, "raw_name": "Bordeaux Blvd Joliot Curie après Benauge", "raw_oneway": true, "raw_direction": "Sens Entrant", "raw_techno": "SIREDO", "osm_name": "Boulevard Joliot-Curie", "osm_type": "primary", "osm_lanes": 3.0, "osm_oneway": "True", "osm_distance": 1.9111435774185963, "osm_maxspeed": 50.0, "osmid": 5117307.0 }, "geometry": { "type": "Point", "coordinates": [ -0.5409774, 44.8435638 ] } },
{ "type": "Feature", "properties": { "AAWT": 2350.0, "TR_AAWT": null, "savg": null, "raw_name": "Floirac Av. Clémenceau après Dubedout", "raw_oneway": true, "raw_direction": "Sud > Nord", "raw_techno": "BOUCLE", "osm_name": "Avenue Georges Clemenceau", "osm_type": "tertiary", "osm_lanes": 2.0, "osm_oneway": null, "osm_distance": 2.9124494862306638, "osm_maxspeed": 30.0, "osmid": 40754842.0 }, "geometry": { "type": "Point", "coordinates": [ -0.5101398, 44.8473575 ] } },
{ "type": "Feature", "properties": { "AAWT": 5957.0, "TR_AAWT": null, "savg": null, "raw_name": "Cenon Av. Jean Zay avant PP Gsc Perrault", "raw_oneway": true, "raw_direction": "Sens Entrant", "raw_techno": "BOUCLE", "osm_name": "Avenue Jean Zay", "osm_type": "tertiary", "osm_lanes": null, "osm_oneway": null, "osm_distance": 1.4467211259015584, "osm_maxspeed": 30.0, "osmid": 25810327.0 }, "geometry": { "type": "Point", "coordinates": [ -0.5099547, 44.8536075 ] } },
{ "type": "Feature", "properties": { "AAWT": 3792.0, "TR_AAWT": null, "savg": null, "raw_name": "Floirac Dubedout avant Allende", "raw_oneway": true, "raw_direction": "Sens Entrant", "raw_techno": "BOUCLE", "osm_name": "Avenue Hubert Dubedout", "osm_type": "secondary", "osm_lanes": null, "osm_oneway": null, "osm_distance": 1.1962693004672933, "osm_maxspeed": 30.0, "osmid": 1178756981.0 },