{
"type": "FeatureCollection",
"name": "Copenhagen_AADT_2024",
"crs": { "type": "name", "properties": { "name": "urn:ogc:def:crs:OGC:1.3:CRS84" } },
"features": [
{ "type": "Feature", "properties": { "raw_name": "Landlystvej", "AADT": 4200.0, "TR_pct_AADT": 1.6, "osm_name": "Landlystvej", "osm_type": "tertiary", "osm_lanes": 2.0, "osm_oneway": null, "osm_distance": 0.93903223532513491, "osm_maxspeed": 50.0, "osmid": 1238696337.0 }, "geometry": { "type": "Point", "coordinates": [ 12.47799453, 55.66045737 ] } },
{ "type": "Feature", "properties": { "raw_name": "Hillerødgade", "AADT": 7300.0, "TR_pct_AADT": 2.7, "osm_name": "Hillerødgade", "osm_type": "tertiary", "osm_lanes": 2.0, "osm_oneway": null, "osm_distance": 0.046238112556582535, "osm_maxspeed": 40.0, "osmid": 1813870.0 }, "geometry": { "type": "Point", "coordinates": [ 12.54234175, 55.69745381 ] } },
{ "type": "Feature", "properties": { "raw_name": "Jagtvej", "AADT": 16000.0, "TR_pct_AADT": 2.4, "osm_name": "Jagtvej", "osm_type": "tertiary", "osm_lanes": 3.0, "osm_oneway": null, "osm_distance": 1.6248826661044096, "osm_maxspeed": 40.0, "osmid": 672675011.0 }, "geometry": { "type": "Point", "coordinates": [ 12.54329402, 55.68947385 ] } },
{ "type": "Feature", "properties": { "raw_name": "Borups Allé", "AADT": 3400.0, "TR_pct_AADT": 5.7, "osm_name": "Borups Allé", "osm_type": "tertiary", "osm_lanes": 2.0, "osm_oneway": null, "osm_distance": 0.86432791037697032, "osm_maxspeed": 50.0, "osmid": 162096436.0 }, "geometry": { "type": "Point", "coordinates": [ 12.54092948, 55.68988596 ] } },
{ "type": "Feature", "properties": { "raw_name": "Hørsholmsgade", "AADT": 600.0, "TR_pct_AADT": 1.6, "osm_name": "Kronborggade", "osm_type": "residential", "osm_lanes": null, "osm_oneway": null, "osm_distance": 0.66342692838528516, "osm_maxspeed": 50.0, "osmid": 1911063.0 }, "geometry": { "type": "Point", "coordinates": [ 12.54249477, 55.69307879 ] } },
{ "type": "Feature", "properties": { "raw_name": "Stefansgade", "AADT": 1600.0, "TR_pct_AADT": 0.5, "osm_name": "Stefansgade", "osm_type": "residential", "osm_lanes": null, "osm_oneway": null, "osm_distance": 0.24751989767878033, "osm_maxspeed": 50.0, "osmid": 1819569.0 }, "geometry": { "type": "Point", "coordinates": [ 12.54125671, 55.69289969 ] } },
{ "type": "Feature", "properties": { "raw_name": "Stefansgade", "AADT": 1900.0, "TR_pct_AADT": 1.2, "osm_name": "Stefansgade", "osm_type": "residential", "osm_lanes": 2.0, "osm_oneway": null, "osm_distance": 2.4488090273520058, "osm_maxspeed": 50.0, "osmid": 683520708.0 }, "geometry": { "type": "Point", "coordinates": [ 12.54475834, 55.69638631 ] } },
{ "type": "Feature", "properties": { "raw_name": "Stefansgade", "AADT": 1100.0, "TR_pct_AADT": 0.7, "osm_name": "Stefansgade", "osm_type": "residential", "osm_lanes": null, "osm_oneway": null, "osm_distance": 2.8965157207217844, "osm_maxspeed": 50.0, "osmid": 1819569.0 }, "geometry": { "type": "Point", "coordinates": [ 12.53955078, 55.6911617 ] } },
{ "type": "Feature", "properties": { "raw_name": "Bellahøjvej", "AADT": 12600.0, "TR_pct_AADT": 2.5, "osm_name": "Bellahøjvej", "osm_type": "tertiary", "osm_lanes": 2.0, "osm_oneway": "False", "osm_distance": 0.64430270632085074, "osm_maxspeed": 40.0, "osmid": 496964514.0 }, "geometry": { "type": "Point", "coordinates": [ 12.49694616, 55.69459367 ] } },
{ "type": "Feature", "properties": { "raw_name": "Borrebyvej", "AADT": 300.0, "TR_pct_AADT": 1.4, "osm_name": "Borrebyvej", "osm_type": "residential", "osm_lanes": null, "osm_oneway": null, "osm_distance": 0.045500873604277396, "osm_maxspeed": 50.0, "osmid": 24988665.0 }, "geometry": { "type": "Point", "coordinates": [ 12.49494738, 55.69442325 ] } },
{ "type": "Feature", "properties": { "raw_name": "Brønshøjvej", "AADT": 2100.0, "TR_pct_AADT": 2.1, "osm_name": "Brønshøjvej", "osm_type": "residential", "osm_lanes": null, "osm_oneway": null, "osm_distance": 0.026305580694314872, "osm_maxspeed": 50.0, "osmid": 1880959.0 }, "geometry": { "type": "Point", "coordinates": [ 12.49922676, 55.69540424 ] } },
{ "type": "Feature", "properties": { "raw_name": "Skellet", "AADT": 3200.0, "TR_pct_AADT": 4.4, "osm_name": "Skellet", "osm_type": "residential", "osm_lanes": 2.0, "osm_oneway": null, "osm_distance": 0.04266041409183733, "osm_maxspeed": 50.0, "osmid": 445541216.0 }, "geometry": { "type": "Point", "coordinates": [ 12.49545904, 55.6720635 ] } },
{ "type": "Feature", "properties": { "raw_name": "Skellet", "AADT": 2400.0, "TR_pct_AADT": 1.9, "osm_name": "Skellet", "osm_type": "residential", "osm_lanes": 2.0, "osm_oneway": null, "osm_distance": 0.56951935745824767, "osm_maxspeed": 50.0, "osmid": 3994166.0 }, "geometry": { "type": "Point", "coordinates": [ 12.49638302, 55.66910436 ] } }
]
}
