{
"type": "FeatureCollection",
"name": "Rennes_AADT_2024",
"crs": { "type": "name", "properties": { "name": "urn:ogc:def:crs:OGC:1.3:CRS84" } },
"features": [
{ "type": "Feature", "properties": { "AADT": 12998.3, "TR_AADT": 288.3, "s85": 39.9, "TR_s85": 35.9, "savg": 32.0, "TR_savg": 25.7, "raw_oneway": false, "raw_direction": null, "osm_name": "Rue de Saint-Malo", "osm_type": "primary", "osm_lanes": 2.0, "osm_oneway": null, "osm_distance": 0.88663494441265245, "osm_maxspeed": 50.0, "osmid": 5057562.0 }, "geometry": { "type": "Point", "coordinates": [ -1.683537190004894, 48.121955043564384 ] } },
{ "type": "Feature", "properties": { "AADT": 7087.0, "TR_AADT": 350.0, "s85": 58.4, "TR_s85": 58.7, "savg": 48.2, "TR_savg": 48.5, "raw_oneway": false, "raw_direction": null, "osm_name": "Chemin de la Prévalaye", "osm_type": "tertiary", "osm_lanes": 2.0, "osm_oneway": null, "osm_distance": 0.053313387134854569, "osm_maxspeed": 50.0, "osmid": 24487259.0 }, "geometry": { "type": "Point", "coordinates": [ -1.728474497791728, 48.097578849355941 ] } },
{ "type": "Feature", "properties": { "AADT": 7928.1, "TR_AADT": 357.2, "s85": 44.0, "TR_s85": 38.6, "savg": 33.5, "TR_savg": 30.1, "raw_oneway": false, "raw_direction": null, "osm_name": "Boulevard de Vitré", "osm_type": "secondary", "osm_lanes": 2.0, "osm_oneway": null, "osm_distance": 0.10804257046106995, "osm_maxspeed": 30.0, "osmid": 1111955801.0 }, "geometry": { "type": "Point", "coordinates": [ -1.651779413221316, 48.125257618248519 ] } },
{ "type": "Feature", "properties": { "AADT": 6024.9, "TR_AADT": 192.2, "s85": 47.2, "TR_s85": 40.6, "savg": 38.3, "TR_savg": 33.8, "raw_oneway": false, "raw_direction": null, "osm_name": "Avenue de Rochester", "osm_type": "primary", "osm_lanes": 2.0, "osm_oneway": "False", "osm_distance": 0.072100861551036566, "osm_maxspeed": 30.0, "osmid": 839743335.0 }, "geometry": { "type": "Point", "coordinates": [ -1.65486609935918, 48.127640209013713 ] } },
{ "type": "Feature", "properties": { "AADT": 7399.0, "TR_AADT": 293.9, "s85": 40.3, "TR_s85": 38.2, "savg": 33.2, "TR_savg": 30.1, "raw_oneway": false, "raw_direction": null, "osm_name": "Boulevard René Laënnec", "osm_type": "secondary", "osm_lanes": 2.0, "osm_oneway": null, "osm_distance": 0.16105799529469433, "osm_maxspeed": 30.0, "osmid": 131509175.0 }, "geometry": { "type": "Point", "coordinates": [ -1.665858111861129, 48.107450012495235 ] } },
{ "type": "Feature", "properties": { "AADT": 7996.3, "TR_AADT": 635.3, "s85": 47.9, "TR_s85": 46.0, "savg": 37.5, "TR_savg": 36.5, "raw_oneway": false, "raw_direction": null, "osm_name": "Rue du Bignon", "osm_type": "tertiary", "osm_lanes": null, "osm_oneway": null, "osm_distance": 4.8539857153003716, "osm_maxspeed": null, "osmid": 22820832.0 }, "geometry": { "type": "Point", "coordinates": [ -1.634619690537288, 48.096800774600148 ] } },
{ "type": "Feature", "properties": { "AADT": 3246.0, "TR_AADT": null, "s85": null, "TR_s85": null, "savg": null, "TR_savg": null, "raw_oneway": false, "raw_direction": null, "osm_name": "Avenue du Canada", "osm_type": "tertiary", "osm_lanes": 1.0, "osm_oneway": "True", "osm_distance": 2.4393878026291116, "osm_maxspeed": null, "osmid": 424280933.0 }, "geometry": { "type": "Point", "coordinates": [ -1.682411333806742, 48.084279651991707 ] } },
{ "type": "Feature", "properties": { "AADT": 7039.0, "TR_AADT": 206.0, "s85": 46.5, "TR_s85": 45.0, "savg": 37.0, "TR_savg": 36.1, "raw_oneway": false, "raw_direction": null, "osm_name": "Rue de la Motte Brûlon", "osm_type": "tertiary", "osm_lanes": 2.0, "osm_oneway": null, "osm_distance": 0.23856193753666774, "osm_maxspeed": 30.0, "osmid": 263319057.0 }, "geometry": { "type": "Point", "coordinates": [ -1.673891544348123, 48.130134398868478 ] } },
{ "type": "Feature", "properties": { "AADT": 18661.1, "TR_AADT": null, "s85": 86.4, "TR_s85": null, "savg": 69.6, "TR_savg": null, "raw_oneway": false, "raw_direction": null, "osm_name": null, "osm_type": "primary", "osm_lanes": 2.0, "osm_oneway": null, "osm_distance": 1.6704638713456548, "osm_maxspeed": 80.0, "osmid": 668789749.0 }, "geometry": { "type": "Point", "coordinates": [ -1.697360970998238, 48.158318427996207 ] } },
{ "type": "Feature", "properties": { "AADT": 2849.8, "TR_AADT": null, "s85": null, "TR_s85": null, "savg": null, "TR_savg": null, "raw_oneway": false, "raw_direction": null, "osm_name": "Rue de Paris", "osm_type": "tertiary", "osm_lanes": 2.0, "osm_oneway": null, "osm_distance": 0.87268876757552605, "osm_maxspeed": 30.0, "osmid": 23067242.0 }, "geometry": { "type": "Point", "coordinates": [ -1.670214487469911, 48.112250573213757 ] } },
{ "type": "Feature", "properties": { "AADT": 6621.4, "TR_AADT": null, "s85": 85.9, "TR_s85": null, "savg": 71.9, "TR_savg": null, "raw_oneway": false, "raw_direction": null, "osm_name": null, "osm_type": "secondary", "osm_lanes": null, "osm_oneway": "True", "osm_distance": 0.42632121538397871, "osm_maxspeed": 70.0, "osmid": 118696423.0 }, "geometry": { "type": "Point", "coordinates": [ -1.649835936087224, 48.157885073768405 ] } },
{ "type": "Feature", "properties": { "AADT": 2063.0, "TR_AADT": 80.3, "s85": 67.3, "TR_s85": 62.2, "savg": 53.3, "TR_savg": 44.1, "raw_oneway": false, "raw_direction": null, "osm_name": null, "osm_type": "secondary", "osm_lanes": null, "osm_oneway": null, "osm_distance": 0.016237301872018297, "osm_maxspeed": 50.0, "osmid": 757781970.0 }, "geometry": { "type": "Point", "coordinates": [ -1.804549184022809, 48.129914718909049 ] } },
{ "type": "Feature", "properties": { "AADT": 2851.2, "TR_AADT": 189.7, "s85": 34.9, "TR_s85": 35.8, "savg": 27.3, "TR_savg": 28.2, "raw_oneway": false, "raw_direction": null, "osm_name": "Quai Chateaubriand", "osm_type": "living_street", "osm_lanes": 1.0, "osm_oneway": "True", "osm_distance": 1.7559948757795802, "osm_maxspeed": 20.0, "osmid": 23162203.0 }, "geometry": { "type": "Point", "coordinates": [ -1.675555050372556, 48.110210799139978 ] } },
{ "type": "Feature", "properties": { "AADT": 415.2, "TR_AADT": 8.8, "s85": 74.6, "TR_s85": 65.1, "savg": 60.9, "TR_savg": 52.9, "raw_oneway": false, "raw_direction": null, "osm_name": null, "osm_type": "unclassified", "osm_lanes": null, "osm_oneway": null, "osm_distance": 0.93885546500431871, "osm_maxspeed": null, "osmid": 25873185.0 }, "geometry": { "type": "Point", "coordinates": [ -1.855675578115652, 48.088821084878454 ] } },
{ "type": "Feature", "properties": { "AADT": 4203.2, "TR_AADT": 114.8, "s85": 53.1, "TR_s85": 49.1, "savg": 43.0, "TR_savg": 40.4, "raw_oneway": false, "raw_direction": null, "osm_name": "Rue Antoine de Saint-Exupéry", "osm_type": "tertiary", "osm_lanes": 2.0, "osm_oneway": null, "osm_distance": 0.57166963403008031, "osm_maxspeed": 30.0, "osmid": 9227866.0 }, "geometry": { "type": "Point", "coordinates": [ -1.67638741965405, 48.161648703067321 ] } },
{ "type": "Feature", "properties": { "AADT": 7505.1, "TR_AADT": 308.3, "s85": 77.9, "TR_s85": 86.8, "savg": 62.8, "TR_savg": 66.9, "raw_oneway": false, "raw_direction": null, "osm_name": null, "osm_type": "secondary", "osm_lanes": 2.0, "osm_oneway": null, "osm_distance": 1.7633977583635212, "osm_maxspeed": 70.0, "osmid": 213118469.0 }, "geometry": { "type": "Point", "coordinates": [ -1.700440089082786, 47.974933881284556 ] } },
{ "type": "Feature", "properties": { "AADT": 1659.2, "TR_AADT": 163.4, "s85": 57.4, "TR_s85": 55.2, "savg": 43.4, "TR_savg": 40.2, "raw_oneway": false, "raw_direction": null, "osm_name": "Rue Jean Lemaistre", "osm_type": "tertiary", "osm_lanes": null, "osm_oneway": null, "osm_distance": 0.097473637212696695, "osm_maxspeed": null, "osmid": 5367566.0 }, "geometry": { "type": "Point", "coordinates": [ -1.719945815519871, 48.105827404933109 ] } },
{ "type": "Feature", "properties": { "AADT": 188.9, "TR_AADT": 3.2, "s85": 28.7, "TR_s85": 29.3, "savg": 23.4, "TR_savg": 23.0, "raw_oneway": false, "raw_direction": null, "osm_name": "Allée des Oiseaux", "osm_type": "residential", "osm_lanes": null, "osm_oneway": null, "osm_distance": 0.045734599207571572, "osm_maxspeed": 30.0, "osmid": 813591584.0 }, "geometry": { "type": "Point", "coordinates": [ -1.701892373545804, 48.006223568434237 ] } },
{ "type": "Feature", "properties": { "AADT": 2847.5, "TR_AADT": 78.2, "s85": 39.0, "TR_s85": 38.4, "savg": 32.0, "TR_savg": 30.0, "raw_oneway": false, "raw_direction": null, "osm_name": "Rue les Temps Modernes", "osm_type": "residential", "osm_lanes": null, "osm_oneway": null, "osm_distance": 0.33563225720293971, "osm_maxspeed": 30.0, "osmid": 167479861.0 }, "geometry": { "type": "Point", "coordinates": [ -1.628910643718164, 48.208875252362397 ] } },
{ "type": "Feature", "properties": { "AADT": 13480.0, "TR_AADT": 881.0, "s85": 49.5, "TR_s85": 46.7, "savg": 38.3, "TR_savg": 34.1, "raw_oneway": false, "raw_direction": null, "osm_name": "Rue Louis Guilloux", "osm_type": "primary", "osm_lanes": 2.0, "osm_oneway": "True", "osm_distance": 2.5145376396138057, "osm_maxspeed": 50.0, "osmid": 381778860.0 }, "geometry": { "type": "Point", "coordinates": [ -1.69867859221318, 48.109906043601171 ] } },
{ "type": "Feature", "properties": { "AADT": 3266.5, "TR_AADT": 93.5, "s85": 78.0, "TR_s85": 81.3, "savg": 65.5, "TR_savg": 61.9, "raw_oneway": false, "raw_direction": null, "osm_name": null, "osm_type": "tertiary", "osm_lanes": null, "osm_oneway": null, "osm_distance": 0.10558717104141682, "osm_maxspeed": null, "osmid": 182029576.0 }, "geometry": { "type": "Point", "coordinates": [ -1.690530085135279, 47.974496116891395 ] } },
{ "type": "Feature", "properties": { "AADT": 15847.0, "TR_AADT": 246.0, "s85": 68.3, "TR_s85": 68.6, "savg": 60.8, "TR_savg": 57.3, "raw_oneway": false, "raw_direction": null, "osm_name": null, "osm_type": "trunk_link", "osm_lanes": 2.0, "osm_oneway": "False", "osm_distance": 0.093380061883831578, "osm_maxspeed": 70.0, "osmid": 23391274.0 }, "geometry": { "type": "Point", "coordinates": [ -1.661046559126461, 48.144332595797891 ] } },
{ "type": "Feature", "properties": { "AADT": 268.8, "TR_AADT": 15.5, "s85": 67.7, "TR_s85": 60.8, "savg": 53.3, "TR_savg": 45.9, "raw_oneway": false, "raw_direction": null, "osm_name": "Rue de Irodouër", "osm_type": "unclassified", "osm_lanes": null, "osm_oneway": "False", "osm_distance": 0.33167606149357687, "osm_maxspeed": 80.0, "osmid": 249442213.0 }, "geometry": { "type": "Point", "coordinates": [ -1.864150637198743, 48.248118060763581 ] } },
{ "type": "Feature", "properties": { "AADT": 14770.4, "TR_AADT": 1430.2, "s85": 77.5, "TR_s85": 75.7, "savg": 65.7, "TR_savg": 63.3, "raw_oneway": false, "raw_direction": null, "osm_name": null, "osm_type": "primary", "osm_lanes": null, "osm_oneway": null, "osm_distance": 0.76966291770212769, "osm_maxspeed": 80.0, "osmid": 667204916.0 }, "geometry": { "type": "Point", "coordinates": [ -1.656943192619418, 48.044942986551412 ] } },
{ "type": "Feature", "properties": { "AADT": 5793.5, "TR_AADT": null, "s85": 81.7, "TR_s85": null, "savg": 65.6, "TR_savg": null, "raw_oneway": false, "raw_direction": null, "osm_name": null, "osm_type": "secondary", "osm_lanes": 2.0, "osm_oneway": null, "osm_distance": 0.21181653651194088, "osm_maxspeed": 70.0, "osmid": 389406572.0 }, "geometry": { "type": "Point", "coordinates": [ -1.664624110002201, 48.065590171001595 ] } },
{ "type": "Feature", "properties": { "AADT": 1587.9, "TR_AADT": null, "s85": null, "TR_s85": null, "savg": null, "TR_savg": null, "raw_oneway": false, "raw_direction": null, "osm_name": "Rue Champion de Cicé", "osm_type": "residential", "osm_lanes": null, "osm_oneway": null, "osm_distance": 3.6286233525558629, "osm_maxspeed": 30.0, "osmid": 474698147.0 }, "geometry": { "type": "Point", "coordinates": [ -1.701394806240703, 48.103224168214574 ] } },
{ "type": "Feature", "properties": { "AADT": 3064.2, "TR_AADT": null, "s85": null, "TR_s85": null, "savg": null, "TR_savg": null, "raw_oneway": false, "raw_direction": null, "osm_name": "Rue Philippe Lebon", "osm_type": "residential", "osm_lanes": null, "osm_oneway": null, "osm_distance": 1.0678627604034707, "osm_maxspeed": 30.0, "osmid": 7981132.0 }, "geometry": { "type": "Point", "coordinates": [ -1.699903897795451, 48.104099750706958 ] } },
{ "type": "Feature", "properties": { "AADT": 415.2, "TR_AADT": 8.8, "s85": 74.6, "TR_s85": 65.1, "savg": 60.9, "TR_savg": 52.9, "raw_oneway": false, "raw_direction": null, "osm_name": null, "osm_type": "unclassified", "osm_lanes": null, "osm_oneway": null, "osm_distance": 1.4626677419494338, "osm_maxspeed": null, "osmid": 349839606.0 }, "geometry": { "type": "Point", "coordinates": [ -1.865895413294638, 48.266409022436449 ] } },
{ "type": "Feature", "properties": { "AADT": 1562.0, "TR_AADT": 53.3, "s85": 61.0, "TR_s85": 63.3, "savg": 49.5, "TR_savg": 48.4, "raw_oneway": false, "raw_direction": null, "osm_name": null, "osm_type": "tertiary", "osm_lanes": null, "osm_oneway": null, "osm_distance": 0.13226345943080781, "osm_maxspeed": 30.0, "osmid": 22942200.0 }, "geometry": { "type": "Point", "coordinates": [ -1.798063049164731, 48.049764206552204 ] } },
{ "type": "Feature", "properties": { "AADT": 9519.2, "TR_AADT": 347.0, "s85": 46.2, "TR_s85": 44.1, "savg": 35.5, "TR_savg": 34.2, "raw_oneway": false, "raw_direction": null, "osm_name": "Rue du Général de Gaulle", "osm_type": "secondary", "osm_lanes": 3.0, "osm_oneway": null, "osm_distance": 0.52138506049228928, "osm_maxspeed": 50.0, "osmid": 199955631.0 }, "geometry": { "type": "Point", "coordinates": [ -1.686440701808982, 48.144662948494862 ] } },
{ "type": "Feature", "properties": { "AADT": 389.2, "TR_AADT": 5.5, "s85": 66.1, "TR_s85": 77.5, "savg": 51.4, "TR_savg": 53.0, "raw_oneway": false, "raw_direction": null, "osm_name": "Chemin du Friche Blanc au Haut-Sévigné", "osm_type": "tertiary", "osm_lanes": null, "osm_oneway": null, "osm_distance": 0.24846610936062463, "osm_maxspeed": null, "osmid": 25002514.0 }, "geometry": { "type": "Point", "coordinates": [ -1.57715796848851, 48.126142056356457 ] } },
{ "type": "Feature", "properties": { "AADT": 517.7, "TR_AADT": 38.1, "s85": 55.3, "TR_s85": 56.5, "savg": 41.9, "TR_savg": 42.8, "raw_oneway": false, "raw_direction": null, "osm_name": "Route de Corps-Nuds", "osm_type": "tertiary", "osm_lanes": null, "osm_oneway": null, "osm_distance": 1.0336531820022787, "osm_maxspeed": null, "osmid": 620682411.0 }, "geometry": { "type": "Point", "coordinates": [ -1.593104940099816, 48.009719602582166 ] } },
{ "type": "Feature", "properties": { "AADT": 12895.2, "TR_AADT": 753.5, "s85": 38.0, "TR_s85": 35.4, "savg": 29.0, "TR_savg": 26.3, "raw_oneway": false, "raw_direction": null, "osm_name": "Route de Domloup", "osm_type": "secondary", "osm_lanes": 2.0, "osm_oneway": null, "osm_distance": 0.60334864134073374, "osm_maxspeed": 50.0, "osmid": 466815793.0 }, "geometry": { "type": "Point", "coordinates": [ -1.590836189102677, 48.113804096173361 ] } },
{ "type": "Feature", "properties": { "AADT": 5418.2, "TR_AADT": 204.0, "s85": 68.0, "TR_s85": 68.0, "savg": 51.4, "TR_savg": 55.4, "raw_oneway": false, "raw_direction": null, "osm_name": "Boulevard Saint-Roch", "osm_type": "secondary", "osm_lanes": 2.0, "osm_oneway": null, "osm_distance": 4.9277800605851301, "osm_maxspeed": 50.0, "osmid": 272272846.0 }, "geometry": { "type": "Point", "coordinates": [ -1.618153330414446, 48.126828890283655 ] } },
{ "type": "Feature", "properties": { "AADT": 150.7, "TR_AADT": 3.3, "s85": 39.6, "TR_s85": 35.9, "savg": 31.3, "TR_savg": 27.3, "raw_oneway": false, "raw_direction": null, "osm_name": null, "osm_type": "unclassified", "osm_lanes": null, "osm_oneway": null, "osm_distance": 1.3156872631981336, "osm_maxspeed": null, "osmid": 10062773.0 }, "geometry": { "type": "Point", "coordinates": [ -1.751258635772904, 47.997755167028181 ] } },
{ "type": "Feature", "properties": { "AADT": 6119.0, "TR_AADT": 361.7, "s85": 44.4, "TR_s85": 39.2, "savg": 35.6, "TR_savg": 31.1, "raw_oneway": false, "raw_direction": null, "osm_name": "Rue Nationale", "osm_type": "secondary", "osm_lanes": 2.0, "osm_oneway": null, "osm_distance": 1.3563019505224965, "osm_maxspeed": 30.0, "osmid": 235045856.0 }, "geometry": { "type": "Point", "coordinates": [ -1.766153718130569, 48.095850414834764 ] } },
{ "type": "Feature", "properties": { "AADT": 784.7, "TR_AADT": 0.0, "s85": 48.5, "TR_s85": 48.9, "savg": 45.0, "TR_savg": 40.3, "raw_oneway": false, "raw_direction": null, "osm_name": "Rue Nationale", "osm_type": "secondary", "osm_lanes": 2.0, "osm_oneway": null, "osm_distance": 1.2633742987331511, "osm_maxspeed": 30.0, "osmid": 51138024.0 }, "geometry": { "type": "Point", "coordinates": [ -1.7694569090958, 48.09506152038454 ] } },
{ "type": "Feature", "properties": { "AADT": 2269.0, "TR_AADT": null, "s85": null, "TR_s85": null, "savg": null, "TR_savg": null, "raw_oneway": false, "raw_direction": null, "osm_name": "Rue de Trégain", "osm_type": "tertiary", "osm_lanes": 2.0, "osm_oneway": null, "osm_distance": 3.642458278380428, "osm_maxspeed": null, "osmid": 16363437.0 }, "geometry": { "type": "Point", "coordinates": [ -1.659483376047947, 48.126205687374551 ] } },
{ "type": "Feature", "properties": { "AADT": 6449.0, "TR_AADT": 243.0, "s85": 38.1, "TR_s85": 37.5, "savg": 29.1, "TR_savg": 27.2, "raw_oneway": false, "raw_direction": null, "osm_name": "Rue de Châteaudun", "osm_type": "secondary", "osm_lanes": null, "osm_oneway": "True", "osm_distance": 0.72877611632642236, "osm_maxspeed": 30.0, "osmid": 4957713.0 }, "geometry": { "type": "Point", "coordinates": [ -1.665955888675635, 48.111457824830332 ] } },
{ "type": "Feature", "properties": { "AADT": 9348.3, "TR_AADT": 295.6, "s85": 47.7, "TR_s85": 42.4, "savg": 37.6, "TR_savg": 34.3, "raw_oneway": false, "raw_direction": null, "osm_name": "Avenue François Château", "osm_type": "primary", "osm_lanes": 1.0, "osm_oneway": "True", "osm_distance": 1.1821569615942842, "osm_maxspeed": 30.0, "osmid": 391932979.0 }, "geometry": { "type": "Point", "coordinates": [ -1.648430930868306, 48.111074085202802 ] } },
{ "type": "Feature", "properties": { "AADT": 1216.9, "TR_AADT": null, "s85": null, "TR_s85": null, "savg": null, "TR_savg": null, "raw_oneway": false, "raw_direction": null, "osm_name": "Rue Brizeux", "osm_type": "tertiary", "osm_lanes": 1.0, "osm_oneway": "True", "osm_distance": 0.18377477746664303, "osm_maxspeed": null, "osmid": 8586381.0 }, "geometry": { "type": "Point", "coordinates": [ -1.672252820464907, 48.119043920940001 ] } },
{ "type": "Feature", "properties": { "AADT": 6396.8, "TR_AADT": null, "s85": null, "TR_s85": null, "savg": null, "TR_savg": null, "raw_oneway": false, "raw_direction": null, "osm_name": "Rue d'Alsace", "osm_type": "tertiary", "osm_lanes": 1.0, "osm_oneway": "True", "osm_distance": 0.39635376591437038, "osm_maxspeed": null, "osmid": 503889391.0 }, "geometry": { "type": "Point", "coordinates": [ -1.703816080193979, 48.121924298443439 ] } },
{ "type": "Feature", "properties": { "AADT": 5505.0, "TR_AADT": null, "s85": null, "TR_s85": null, "savg": null, "TR_savg": null, "raw_oneway": false, "raw_direction": null, "osm_name": null, "osm_type": null, "osm_lanes": null, "osm_oneway": null, "osm_distance": null, "osm_maxspeed": null, "osmid": null }, "geometry": { "type": "Point", "coordinates": [ -1.700190696467718, 48.130728139539897 ] } },
{ "type": "Feature", "properties": { "AADT": 1699.0, "TR_AADT": 39.2, "s85": 83.1, "TR_s85": 82.6, "savg": 71.1, "TR_savg": 69.1, "raw_oneway": false, "raw_direction": null, "osm_name": null, "osm_type": "tertiary", "osm_lanes": 2.0, "osm_oneway": null, "osm_distance": 0.29608156756591053, "osm_maxspeed": 80.0, "osmid": 39145106.0 }, "geometry": { "type": "Point", "coordinates": [ -1.654966275164815, 48.211404658669238 ] } },
{ "type": "Feature", "properties": { "AADT": 4862.8, "TR_AADT": null, "s85": null, "TR_s85": null, "savg": null, "TR_savg": null, "raw_oneway": false, "raw_direction": null, "osm_name": "Rue de Vincennes", "osm_type": "primary", "osm_lanes": null, "osm_oneway": "True", "osm_distance": 0.093556338808081063, "osm_maxspeed": null, "osmid": 859040965.0 }, "geometry": { "type": "Point", "coordinates": [ -1.674532549430418, 48.117953525745122 ] } },
{ "type": "Feature", "properties": { "AADT": 4083.0, "TR_AADT": null, "s85": null, "TR_s85": null, "savg": null, "TR_savg": null, "raw_oneway": false, "raw_direction": null, "osm_name": "Avenue André Mussat", "osm_type": "tertiary", "osm_lanes": 1.0, "osm_oneway": "True", "osm_distance": 0.64856336690492167, "osm_maxspeed": 30.0, "osmid": 264789256.0 }, "geometry": { "type": "Point", "coordinates": [ -1.695667277637622, 48.129972101044864 ] } },
{ "type": "Feature", "properties": { "AADT": 2620.0, "TR_AADT": 42.0, "s85": 28.9, "TR_s85": 29.9, "savg": 22.4, "TR_savg": 23.2, "raw_oneway": false, "raw_direction": null, "osm_name": "Rue Albert de Mun", "osm_type": "residential", "osm_lanes": 1.0, "osm_oneway": "True", "osm_distance": 0.90726249301341666, "osm_maxspeed": 30.0, "osmid": 385852450.0 }, "geometry": { "type": "Point", "coordinates": [ -1.665261743520203, 48.10179580407307 ] } },
{ "type": "Feature", "properties": { "AADT": 8867.2, "TR_AADT": 99.7, "s85": 48.0, "TR_s85": 46.2, "savg": 39.9, "TR_savg": 37.2, "raw_oneway": false, "raw_direction": null, "osm_name": "Boulevard Pierre Mendès-France", "osm_type": "primary", "osm_lanes": 2.0, "osm_oneway": null, "osm_distance": 0.90177824142176755, "osm_maxspeed": 50.0, "osmid": 1187687794.0 }, "geometry": { "type": "Point", "coordinates": [ -1.694204990041259, 48.097979048334089 ] } },
{ "type": "Feature", "properties": { "AADT": 8542.2, "TR_AADT": 134.5, "s85": 38.5, "TR_s85": 34.9, "savg": 31.7, "TR_savg": 26.9, "raw_oneway": false, "raw_direction": null, "osm_name": "Rue de l'Alma", "osm_type": "primary", "osm_lanes": 2.0, "osm_oneway": "False", "osm_distance": 3.1722262627502733, "osm_maxspeed": 30.0, "osmid": 46654917.0 }, "geometry": { "type": "Point", "coordinates": [ -1.674691492775712, 48.095408065021218 ] } },
{ "type": "Feature", "properties": { "AADT": 3725.0, "TR_AADT": 146.0, "s85": 39.0, "TR_s85": 37.7, "savg": 31.8, "TR_savg": 30.0, "raw_oneway": false, "raw_direction": null, "osm_name": "Rue Paul Langevin", "osm_type": "tertiary", "osm_lanes": null, "osm_oneway": null, "osm_distance": 0.56908984597275547, "osm_maxspeed": 30.0, "osmid": 23088119.0 }, "geometry": { "type": "Point", "coordinates": [ -1.658196025416689, 48.094468191047532 ] } },
{ "type": "Feature", "properties": { "AADT": 5402.5, "TR_AADT": 229.4, "s85": 88.2, "TR_s85": 88.5, "savg": 76.1, "TR_savg": 74.8, "raw_oneway": false, "raw_direction": null, "osm_name": null, "osm_type": "primary", "osm_lanes": 2.0, "osm_oneway": null, "osm_distance": 1.3549184809503771, "osm_maxspeed": 80.0, "osmid": 5654548.0 }, "geometry": { "type": "Point", "coordinates": [ -1.612353096960699, 48.155714966082236 ] } },
{ "type": "Feature", "properties": { "AADT": 19812.3, "TR_AADT": null, "s85": 49.3, "TR_s85": null, "savg": 38.7, "TR_savg": null, "raw_oneway": false, "raw_direction": null, "osm_name": "Rue de Saint-Malo", "osm_type": "primary", "osm_lanes": 1.0, "osm_oneway": "True", "osm_distance": 2.9753863745392697, "osm_maxspeed": 50.0, "osmid": 5106971.0 }, "geometry": { "type": "Point", "coordinates": [ -1.689319610600065, 48.130370706878189 ] } },
{ "type": "Feature", "properties": { "AADT": 27140.2, "TR_AADT": null, "s85": 50.8, "TR_s85": null, "savg": 40.5, "TR_savg": null, "raw_oneway": false, "raw_direction": null, "osm_name": "Porte de Brest", "osm_type": "trunk", "osm_lanes": 2.0, "osm_oneway": "True", "osm_distance": 3.0198494064314017, "osm_maxspeed": 50.0, "osmid": 119105500.0 }, "geometry": { "type": "Point", "coordinates": [ -1.714503227102314, 48.118056572651525 ] } },
{ "type": "Feature", "properties": { "AADT": 8286.4, "TR_AADT": 88.9, "s85": 50.1, "TR_s85": 49.1, "savg": 42.2, "TR_savg": 40.5, "raw_oneway": false, "raw_direction": null, "osm_name": "Rue de Brest", "osm_type": "secondary", "osm_lanes": 2.0, "osm_oneway": "True", "osm_distance": 3.0518235909151707, "osm_maxspeed": 50.0, "osmid": 394496305.0 }, "geometry": { "type": "Point", "coordinates": [ -1.697833650477979, 48.113809243991291 ] } },
{ "type": "Feature", "properties": { "AADT": 270.2, "TR_AADT": 8.7, "s85": 48.7, "TR_s85": 47.0, "savg": 36.8, "TR_savg": 35.0, "raw_oneway": false, "raw_direction": null, "osm_name": "Rue du Pont-Lagot", "osm_type": "tertiary", "osm_lanes": null, "osm_oneway": null, "osm_distance": 2.8461841419240388, "osm_maxspeed": 30.0, "osmid": 25805192.0 }, "geometry": { "type": "Point", "coordinates": [ -1.72551929194222, 48.122344875413077 ] } },
{ "type": "Feature", "properties": { "AADT": 4036.3, "TR_AADT": null, "s85": null, "TR_s85": null, "savg": null, "TR_savg": null, "raw_oneway": false, "raw_direction": null, "osm_name": "Rue de Suède", "osm_type": "secondary", "osm_lanes": null, "osm_oneway": null, "osm_distance": 0.22738829474108943, "osm_maxspeed": 30.0, "osmid": 7955411.0 }, "geometry": { "type": "Point", "coordinates": [ -1.679633595013544, 48.08675293403968 ] } },
{ "type": "Feature", "properties": { "AADT": 751.2, "TR_AADT": null, "s85": null, "TR_s85": null, "savg": null, "TR_savg": null, "raw_oneway": false, "raw_direction": null, "osm_name": "Rue des Trente", "osm_type": "residential", "osm_lanes": null, "osm_oneway": null, "osm_distance": 0.28541317114246967, "osm_maxspeed": 30.0, "osmid": 25682053.0 }, "geometry": { "type": "Point", "coordinates": [ -1.687612384555975, 48.107041237208414 ] } },
{ "type": "Feature", "properties": { "AADT": 1020.6, "TR_AADT": null, "s85": null, "TR_s85": null, "savg": null, "TR_savg": null, "raw_oneway": false, "raw_direction": null, "osm_name": "Rue de la Palestine", "osm_type": "residential", "osm_lanes": null, "osm_oneway": "True", "osm_distance": 9.8968516841083432, "osm_maxspeed": 30.0, "osmid": 667242498.0 }, "geometry": { "type": "Point", "coordinates": [ -1.660464268319942, 48.115219648599599 ] } },
{ "type": "Feature", "properties": { "AADT": 54.0, "TR_AADT": 0.8, "s85": 53.6, "TR_s85": 51.0, "savg": 41.3, "TR_savg": 38.3, "raw_oneway": false, "raw_direction": null, "osm_name": null, "osm_type": "unclassified", "osm_lanes": null, "osm_oneway": null, "osm_distance": 1.0501946354960228, "osm_maxspeed": null, "osmid": 115979101.0 }, "geometry": { "type": "Point", "coordinates": [ -1.631318449977071, 48.014775685412147 ] } },
{ "type": "Feature", "properties": { "AADT": 7546.6, "TR_AADT": 61.3, "s85": 33.7, "TR_s85": 35.4, "savg": 26.0, "TR_savg": 26.1, "raw_oneway": false, "raw_direction": null, "osm_name": "Rue Saint-Martin", "osm_type": "primary", "osm_lanes": 2.0, "osm_oneway": "True", "osm_distance": 2.2762739511337111, "osm_maxspeed": 50.0, "osmid": 314078578.0 }, "geometry": { "type": "Point", "coordinates": [ -1.678779810255154, 48.119271530152574 ] } },
{ "type": "Feature", "properties": { "AADT": 30027.0, "TR_AADT": null, "s85": 110.1, "TR_s85": null, "savg": 94.5, "TR_savg": null, "raw_oneway": false, "raw_direction": null, "osm_name": "Route d'Angers", "osm_type": "trunk", "osm_lanes": 2.0, "osm_oneway": "True", "osm_distance": 0.17777728157289727, "osm_maxspeed": 110.0, "osmid": 625275414.0 }, "geometry": { "type": "Point", "coordinates": [ -1.60388042099813, 48.039466905999532 ] } },
{ "type": "Feature", "properties": { "AADT": 918.0, "TR_AADT": 20.0, "s85": 42.0, "TR_s85": 50.0, "savg": 31.3, "TR_savg": 36.5, "raw_oneway": false, "raw_direction": null, "osm_name": "Rue Louise de Bettignies", "osm_type": "residential", "osm_lanes": 2.0, "osm_oneway": "False", "osm_distance": 6.2922401697528265, "osm_maxspeed": 30.0, "osmid": 24778462.0 }, "geometry": { "type": "Point", "coordinates": [ -1.690389317315215, 48.091277172605217 ] } },
{ "type": "Feature", "properties": { "AADT": 1430.1, "TR_AADT": 34.7, "s85": 76.5, "TR_s85": 81.2, "savg": 61.4, "TR_savg": 64.9, "raw_oneway": false, "raw_direction": null, "osm_name": null, "osm_type": "tertiary", "osm_lanes": null, "osm_oneway": null, "osm_distance": 0.56309363355410424, "osm_maxspeed": 70.0, "osmid": 404735730.0 }, "geometry": { "type": "Point", "coordinates": [ -1.76306960843657, 48.073480884937872 ] } },
{ "type": "Feature", "properties": { "AADT": 13517.7, "TR_AADT": null, "s85": null, "TR_s85": null, "savg": null, "TR_savg": null, "raw_oneway": false, "raw_direction": null, "osm_name": "Rue de Nantes", "osm_type": "primary", "osm_lanes": 2.0, "osm_oneway": "True", "osm_distance": 3.2797348203087604, "osm_maxspeed": 30.0, "osmid": 5088851.0 }, "geometry": { "type": "Point", "coordinates": [ -1.686160411205401, 48.100368700741704 ] } },
{ "type": "Feature", "properties": { "AADT": 1608.3, "TR_AADT": null, "s85": null, "TR_s85": null, "savg": null, "TR_savg": null, "raw_oneway": false, "raw_direction": null, "osm_name": "Avenue Jules Maniez", "osm_type": "secondary", "osm_lanes": 2.0, "osm_oneway": "True", "osm_distance": 2.2371771073869708, "osm_maxspeed": null, "osmid": 49782639.0 }, "geometry": { "type": "Point", "coordinates": [ -1.699159981668714, 48.09832397461512 ] } },
{ "type": "Feature", "properties": { "AADT": 4787.4, "TR_AADT": 103.7, "s85": 47.5, "TR_s85": 42.9, "savg": 38.5, "TR_savg": 33.6, "raw_oneway": false, "raw_direction": null, "osm_name": "Avenue du Général de Gaulle", "osm_type": "secondary", "osm_lanes": 2.0, "osm_oneway": null, "osm_distance": 2.8242106586755389, "osm_maxspeed": 50.0, "osmid": 23591693.0 }, "geometry": { "type": "Point", "coordinates": [ -1.734241854882419, 48.022417394231361 ] } },
{ "type": "Feature", "properties": { "AADT": 35723.6, "TR_AADT": null, "s85": 106.5, "TR_s85": null, "savg": 91.6, "TR_savg": null, "raw_oneway": false, "raw_direction": null, "osm_name": "Route d'Angers", "osm_type": "trunk", "osm_lanes": 2.0, "osm_oneway": "True", "osm_distance": 1.5594672356492301, "osm_maxspeed": 90.0, "osmid": 25668251.0 }, "geometry": { "type": "Point", "coordinates": [ -1.623379891002471, 48.069803917998357 ] } },
{ "type": "Feature", "properties": { "AADT": 1873.9, "TR_AADT": null, "s85": null, "TR_s85": null, "savg": null, "TR_savg": null, "raw_oneway": false, "raw_direction": null, "osm_name": "Rue Ginguené", "osm_type": "residential", "osm_lanes": 1.0, "osm_oneway": "True", "osm_distance": 0.9748924343692249, "osm_maxspeed": 30.0, "osmid": 9897197.0 }, "geometry": { "type": "Point", "coordinates": [ -1.677792000798469, 48.099271618414775 ] } },
{ "type": "Feature", "properties": { "AADT": 8136.4, "TR_AADT": null, "s85": null, "TR_s85": null, "savg": null, "TR_savg": null, "raw_oneway": false, "raw_direction": null, "osm_name": "Boulevard Oscar Leroux", "osm_type": "secondary", "osm_lanes": 1.0, "osm_oneway": "True", "osm_distance": 0.41478620793309784, "osm_maxspeed": 30.0, "osmid": 49277247.0 }, "geometry": { "type": "Point", "coordinates": [ -1.663509775155191, 48.091401662606486 ] } },
{ "type": "Feature", "properties": { "AADT": 26748.1, "TR_AADT": 609.7, "s85": 49.8, "TR_s85": 47.0, "savg": 39.6, "TR_savg": 32.0, "raw_oneway": false, "raw_direction": null, "osm_name": "Rue de Vern", "osm_type": "primary", "osm_lanes": 2.0, "osm_oneway": "True", "osm_distance": 1.5837535836765499, "osm_maxspeed": 50.0, "osmid": 952704084.0 }, "geometry": { "type": "Point", "coordinates": [ -1.644048897264123, 48.08606176241608 ] } },
{ "type": "Feature", "properties": { "AADT": 2379.2, "TR_AADT": 63.2, "s85": 45.4, "TR_s85": 44.1, "savg": 34.6, "TR_savg": 33.7, "raw_oneway": false, "raw_direction": null, "osm_name": "Rue Fernand Robert", "osm_type": "tertiary", "osm_lanes": null, "osm_oneway": null, "osm_distance": 0.33761174033799846, "osm_maxspeed": 30.0, "osmid": 5107011.0 }, "geometry": { "type": "Point", "coordinates": [ -1.711237777567981, 48.132625453860477 ] } },
{ "type": "Feature", "properties": { "AADT": 7168.5, "TR_AADT": 318.0, "s85": 47.3, "TR_s85": 41.5, "savg": 38.5, "TR_savg": 34.7, "raw_oneway": false, "raw_direction": null, "osm_name": "Boulevard Louis Pasteur", "osm_type": "secondary", "osm_lanes": null, "osm_oneway": null, "osm_distance": 0.94182415610952197, "osm_maxspeed": null, "osmid": 8586368.0 }, "geometry": { "type": "Point", "coordinates": [ -1.736112574662083, 48.024092473388521 ] } },
{ "type": "Feature", "properties": { "AADT": 1663.3, "TR_AADT": null, "s85": null, "TR_s85": null, "savg": null, "TR_savg": null, "raw_oneway": false, "raw_direction": null, "osm_name": "Rue Alphonse Guérin", "osm_type": "living_street", "osm_lanes": null, "osm_oneway": "False", "osm_distance": 0.5286399595664204, "osm_maxspeed": 20.0, "osmid": 409869619.0 }, "geometry": { "type": "Point", "coordinates": [ -1.663944265965498, 48.108913238654068 ] } },
{ "type": "Feature", "properties": { "AADT": 4244.5, "TR_AADT": null, "s85": null, "TR_s85": null, "savg": null, "TR_savg": null, "raw_oneway": false, "raw_direction": null, "osm_name": "Avenue Charles et Raymonde Tillon", "osm_type": "primary", "osm_lanes": null, "osm_oneway": "True", "osm_distance": 4.9474827936575405, "osm_maxspeed": 50.0, "osmid": 1158118685.0 }, "geometry": { "type": "Point", "coordinates": [ -1.698256731031683, 48.125351613443137 ] } },
{ "type": "Feature", "properties": { "AADT": 14769.5, "TR_AADT": 170.5, "s85": 45.4, "TR_s85": 41.6, "savg": 35.1, "TR_savg": 31.7, "raw_oneway": false, "raw_direction": null, "osm_name": "Boulevard Villebois-Mareuil", "osm_type": "secondary", "osm_lanes": 2.0, "osm_oneway": null, "osm_distance": 1.2165089425593865, "osm_maxspeed": 30.0, "osmid": 263795720.0 }, "geometry": { "type": "Point", "coordinates": [ -1.65075992203898, 48.106191902724717 ] } },
{ "type": "Feature", "properties": { "AADT": 6485.4, "TR_AADT": null, "s85": null, "TR_s85": null, "savg": null, "TR_savg": null, "raw_oneway": false, "raw_direction": null, "osm_name": "Rue de Fougères", "osm_type": "primary", "osm_lanes": 4.0, "osm_oneway": null, "osm_distance": 1.6153418630740044, "osm_maxspeed": 70.0, "osmid": 264789274.0 }, "geometry": { "type": "Point", "coordinates": [ -1.664353814014895, 48.120965899544899 ] } },
{ "type": "Feature", "properties": { "AADT": 7273.5, "TR_AADT": null, "s85": null, "TR_s85": null, "savg": null, "TR_savg": null, "raw_oneway": false, "raw_direction": null, "osm_name": "Rue d'Espagne", "osm_type": "secondary", "osm_lanes": null, "osm_oneway": null, "osm_distance": 0.84855409979928864, "osm_maxspeed": 30.0, "osmid": 263323786.0 }, "geometry": { "type": "Point", "coordinates": [ -1.670457028063525, 48.086595966335473 ] } },
{ "type": "Feature", "properties": { "AADT": 7966.0, "TR_AADT": null, "s85": null, "TR_s85": null, "savg": null, "TR_savg": null, "raw_oneway": false, "raw_direction": null, "osm_name": "Rue de Brest", "osm_type": "secondary", "osm_lanes": 2.0, "osm_oneway": "True", "osm_distance": 2.8845815038017522, "osm_maxspeed": 30.0, "osmid": 393024892.0 }, "geometry": { "type": "Point", "coordinates": [ -1.687940273257331, 48.112117084850162 ] } },
{ "type": "Feature", "properties": { "AADT": 823.3, "TR_AADT": 3.0, "s85": 33.4, "TR_s85": 29.4, "savg": 25.9, "TR_savg": 23.5, "raw_oneway": false, "raw_direction": null, "osm_name": "Rue François Chapin", "osm_type": "residential", "osm_lanes": null, "osm_oneway": null, "osm_distance": 0.54555590615197624, "osm_maxspeed": 30.0, "osmid": 1160212447.0 }, "geometry": { "type": "Point", "coordinates": [ -1.661470234392311, 48.043223847431555 ] } },
{ "type": "Feature", "properties": { "AADT": 568.9, "TR_AADT": 12.3, "s85": 68.8, "TR_s85": 66.8, "savg": 57.0, "TR_savg": 52.5, "raw_oneway": false, "raw_direction": null, "osm_name": null, "osm_type": "tertiary", "osm_lanes": 1.0, "osm_oneway": "False", "osm_distance": 2.4283970112487325, "osm_maxspeed": null, "osmid": 27953310.0 }, "geometry": { "type": "Point", "coordinates": [ -1.750339865688848, 48.153076264231125 ] } },
{ "type": "Feature", "properties": { "AADT": 409.0, "TR_AADT": null, "s85": null, "TR_s85": null, "savg": null, "TR_savg": null, "raw_oneway": false, "raw_direction": null, "osm_name": "Boulevard Pierre Le Moine", "osm_type": "residential", "osm_lanes": 1.0, "osm_oneway": "False", "osm_distance": 0.10518454146876038, "osm_maxspeed": 30.0, "osmid": 22935229.0 }, "geometry": { "type": "Point", "coordinates": [ -1.661100383797223, 48.090403535544361 ] } },
{ "type": "Feature", "properties": { "AADT": 1088.0, "TR_AADT": 22.0, "s85": 37.7, "TR_s85": 34.2, "savg": 28.7, "TR_savg": 24.8, "raw_oneway": false, "raw_direction": null, "osm_name": "Rue Paul Bourget", "osm_type": "residential", "osm_lanes": null, "osm_oneway": null, "osm_distance": 5.5865381750333212, "osm_maxspeed": 30.0, "osmid": 23639026.0 }, "geometry": { "type": "Point", "coordinates": [ -1.654993269652685, 48.092669741139012 ] } },
{ "type": "Feature", "properties": { "AADT": 2397.5, "TR_AADT": null, "s85": null, "TR_s85": null, "savg": null, "TR_savg": null, "raw_oneway": false, "raw_direction": null, "osm_name": "Rue du Bourbonnais", "osm_type": "unclassified", "osm_lanes": null, "osm_oneway": null, "osm_distance": 4.4266634739527317, "osm_maxspeed": 30.0, "osmid": 934394273.0 }, "geometry": { "type": "Point", "coordinates": [ -1.711156043420574, 48.120485412531934 ] } },
{ "type": "Feature", "properties": { "AADT": 330.7, "TR_AADT": 10.2, "s85": 52.7, "TR_s85": 50.4, "savg": 40.3, "TR_savg": 39.4, "raw_oneway": false, "raw_direction": null, "osm_name": "Rue du Pont-Lagot", "osm_type": "tertiary", "osm_lanes": null, "osm_oneway": null, "osm_distance": 2.9575143582062644, "osm_maxspeed": 30.0, "osmid": 25805192.0 }, "geometry": { "type": "Point", "coordinates": [ -1.727763819047942, 48.122776187708773 ] } },
{ "type": "Feature", "properties": { "AADT": 814.0, "TR_AADT": 10.0, "s85": 43.8, "TR_s85": 46.2, "savg": 36.6, "TR_savg": 38.9, "raw_oneway": false, "raw_direction": null, "osm_name": "Rue Lamennais", "osm_type": "residential", "osm_lanes": null, "osm_oneway": null, "osm_distance": 0.48956516528545502, "osm_maxspeed": null, "osmid": 28187886.0 }, "geometry": { "type": "Point", "coordinates": [ -1.817877969103044, 48.128440071477037 ] } },
{ "type": "Feature", "properties": { "AADT": 7707.7, "TR_AADT": 116.1, "s85": 49.6, "TR_s85": 47.3, "savg": 40.2, "TR_savg": 35.4, "raw_oneway": false, "raw_direction": null, "osm_name": "Boulevard du Maréchal de Lattre de Tassigny", "osm_type": "primary", "osm_lanes": 2.0, "osm_oneway": "True", "osm_distance": 1.5570103719684951, "osm_maxspeed": 30.0, "osmid": 176015808.0 }, "geometry": { "type": "Point", "coordinates": [ -1.685444522669297, 48.118880094611463 ] } },
{ "type": "Feature", "properties": { "AADT": 882.0, "TR_AADT": null, "s85": null, "TR_s85": null, "savg": null, "TR_savg": null, "raw_oneway": false, "raw_direction": null, "osm_name": "Rue Jules Lallemand", "osm_type": "residential", "osm_lanes": null, "osm_oneway": null, "osm_distance": 4.1207258374459697, "osm_maxspeed": 30.0, "osmid": 49782633.0 }, "geometry": { "type": "Point", "coordinates": [ -1.705047413442437, 48.10038234702067 ] } },
{ "type": "Feature", "properties": { "AADT": 6928.6, "TR_AADT": null, "s85": null, "TR_s85": null, "savg": null, "TR_savg": null, "raw_oneway": false, "raw_direction": null, "osm_name": "Avenue du Général George S. Patton", "osm_type": "primary", "osm_lanes": 1.0, "osm_oneway": "True", "osm_distance": 3.8356386656081933, "osm_maxspeed": 50.0, "osmid": 4919570.0 }, "geometry": { "type": "Point", "coordinates": [ -1.662974505435192, 48.130190757486425 ] } },
{ "type": "Feature", "properties": { "AADT": 6822.6, "TR_AADT": null, "s85": null, "TR_s85": null, "savg": null, "TR_savg": null, "raw_oneway": false, "raw_direction": null, "osm_name": "Rue de Nantes", "osm_type": "primary", "osm_lanes": 1.0, "osm_oneway": "True", "osm_distance": 1.9626941430005831, "osm_maxspeed": 30.0, "osmid": 461100092.0 }, "geometry": { "type": "Point", "coordinates": [ -1.691196580477413, 48.092929308059652 ] } },
{ "type": "Feature", "properties": { "AADT": 10121.2, "TR_AADT": null, "s85": null, "TR_s85": null, "savg": null, "TR_savg": null, "raw_oneway": false, "raw_direction": null, "osm_name": "Pont Malakoff", "osm_type": "primary", "osm_lanes": 2.0, "osm_oneway": null, "osm_distance": 2.4766516228035718, "osm_maxspeed": 50.0, "osmid": 72988179.0 }, "geometry": { "type": "Point", "coordinates": [ -1.693176130870921, 48.106914866104887 ] } },
{ "type": "Feature", "properties": { "AADT": 4267.7, "TR_AADT": null, "s85": null, "TR_s85": null, "savg": null, "TR_savg": null, "raw_oneway": false, "raw_direction": null, "osm_name": null, "osm_type": "service", "osm_lanes": null, "osm_oneway": null, "osm_distance": 0.15762550571237505, "osm_maxspeed": null, "osmid": 1242135881.0 }, "geometry": { "type": "Point", "coordinates": [ -1.691744997192982, 48.095278048298937 ] } },
{ "type": "Feature", "properties": { "AADT": 3317.1, "TR_AADT": null, "s85": null, "TR_s85": null, "savg": null, "TR_savg": null, "raw_oneway": false, "raw_direction": null, "osm_name": "Avenue de la Touraudais", "osm_type": "secondary", "osm_lanes": 2.0, "osm_oneway": "False", "osm_distance": 5.0221448449555366, "osm_maxspeed": 50.0, "osmid": 508280313.0 }, "geometry": { "type": "Point", "coordinates": [ -1.632793528907402, 48.116562733717508 ] } },
{ "type": "Feature", "properties": { "AADT": 5347.1, "TR_AADT": 167.9, "s85": 40.3, "TR_s85": 37.9, "savg": 33.2, "TR_savg": 30.5, "raw_oneway": false, "raw_direction": null, "osm_name": "Rue Jean Guéhenno", "osm_type": "primary", "osm_lanes": 3.0, "osm_oneway": null, "osm_distance": 0.68136054485265229, "osm_maxspeed": null, "osmid": 4816606.0 }, "geometry": { "type": "Point", "coordinates": [ -1.669335085542692, 48.11838320475502 ] } },
{ "type": "Feature", "properties": { "AADT": 110.0, "TR_AADT": 4.0, "s85": 33.1, "TR_s85": 27.0, "savg": 24.5, "TR_savg": 17.5, "raw_oneway": false, "raw_direction": null, "osm_name": "Rue Robiquet", "osm_type": "unclassified", "osm_lanes": null, "osm_oneway": "True", "osm_distance": 0.16681808355908445, "osm_maxspeed": 30.0, "osmid": 25975860.0 }, "geometry": { "type": "Point", "coordinates": [ -1.682603359219055, 48.123170880674394 ] } },
{ "type": "Feature", "properties": { "AADT": 81.6, "TR_AADT": 1.4, "s85": 55.3, "TR_s85": 48.8, "savg": 41.6, "TR_savg": 40.0, "raw_oneway": false, "raw_direction": null, "osm_name": null, "osm_type": "unclassified", "osm_lanes": null, "osm_oneway": null, "osm_distance": 0.57273216186375753, "osm_maxspeed": null, "osmid": 23509982.0 }, "geometry": { "type": "Point", "coordinates": [ -1.799034482998378, 48.061306114644196 ] } },
{ "type": "Feature", "properties": { "AADT": 315.0, "TR_AADT": 8.0, "s85": 39.5, "TR_s85": 44.0, "savg": 30.3, "TR_savg": 33.8, "raw_oneway": false, "raw_direction": null, "osm_name": "Rue Guillotin de Corson", "osm_type": "residential", "osm_lanes": null, "osm_oneway": null, "osm_distance": 0.57652983278955228, "osm_maxspeed": 30.0, "osmid": 24775932.0 }, "geometry": { "type": "Point", "coordinates": [ -1.669223642932624, 48.096781111644574 ] } },
{ "type": "Feature", "properties": { "AADT": 2548.6, "TR_AADT": null, "s85": null, "TR_s85": null, "savg": null, "TR_savg": null, "raw_oneway": false, "raw_direction": null, "osm_name": "Rue Mirabeau", "osm_type": "tertiary", "osm_lanes": 3.0, "osm_oneway": null, "osm_distance": 1.6710163647244665, "osm_maxspeed": 30.0, "osmid": 695830692.0 }, "geometry": { "type": "Point", "coordinates": [ -1.649361905353201, 48.122364443838727 ] } },
{ "type": "Feature", "properties": { "AADT": 4203.6, "TR_AADT": null, "s85": null, "TR_s85": null, "savg": null, "TR_savg": null, "raw_oneway": false, "raw_direction": null, "osm_name": "Rue Danton", "osm_type": "tertiary", "osm_lanes": 2.0, "osm_oneway": null, "osm_distance": 3.4759860895178205, "osm_maxspeed": 30.0, "osmid": 49426738.0 }, "geometry": { "type": "Point", "coordinates": [ -1.654435386985525, 48.117765842639692 ] } },
{ "type": "Feature", "properties": { "AADT": 7561.1, "TR_AADT": null, "s85": null, "TR_s85": null, "savg": null, "TR_savg": null, "raw_oneway": false, "raw_direction": null, "osm_name": "Avenue Andrée Viollis", "osm_type": "secondary", "osm_lanes": 2.0, "osm_oneway": "False", "osm_distance": 2.3992161410069266, "osm_maxspeed": 30.0, "osmid": 16873876.0 }, "geometry": { "type": "Point", "coordinates": [ -1.659467697144605, 48.090000339326728 ] } },
{ "type": "Feature", "properties": { "AADT": 3186.3, "TR_AADT": null, "s85": null, "TR_s85": null, "savg": null, "TR_savg": null, "raw_oneway": false, "raw_direction": null, "osm_name": null, "osm_type": "service", "osm_lanes": null, "osm_oneway": null, "osm_distance": 1.5138577234988193, "osm_maxspeed": null, "osmid": 367575526.0 }, "geometry": { "type": "Point", "coordinates": [ -1.687657857213437, 48.101450499548392 ] } },
{ "type": "Feature", "properties": { "AADT": 4274.7, "TR_AADT": 38.0, "s85": 45.1, "TR_s85": 39.4, "savg": 36.1, "TR_savg": 32.0, "raw_oneway": false, "raw_direction": null, "osm_name": "Boulevard de la Duchesse Anne", "osm_type": "secondary", "osm_lanes": 1.0, "osm_oneway": "True", "osm_distance": 0.60922515654572862, "osm_maxspeed": 30.0, "osmid": 49426739.0 }, "geometry": { "type": "Point", "coordinates": [ -1.666011293588771, 48.114187172840644 ] } },
{ "type": "Feature", "properties": { "AADT": 1079.2, "TR_AADT": null, "s85": null, "TR_s85": null, "savg": null, "TR_savg": null, "raw_oneway": false, "raw_direction": null, "osm_name": "Rue Jules Verne", "osm_type": "residential", "osm_lanes": null, "osm_oneway": null, "osm_distance": 3.1392171988515387, "osm_maxspeed": 30.0, "osmid": 23681101.0 }, "geometry": { "type": "Point", "coordinates": [ -1.691999433105453, 48.099671366227682 ] } },
{ "type": "Feature", "properties": { "AADT": 6705.4, "TR_AADT": 462.8, "s85": 58.2, "TR_s85": 56.5, "savg": 49.4, "TR_savg": 46.9, "raw_oneway": false, "raw_direction": null, "osm_name": "Rue Auguste Pavie", "osm_type": "tertiary", "osm_lanes": 2.0, "osm_oneway": "False", "osm_distance": 4.629988890815512, "osm_maxspeed": 50.0, "osmid": 450138835.0 }, "geometry": { "type": "Point", "coordinates": [ -1.638073829243048, 48.10404325362255 ] } },
{ "type": "Feature", "properties": { "AADT": 5128.3, "TR_AADT": 58.4, "s85": 39.2, "TR_s85": 36.2, "savg": 29.1, "TR_savg": 22.6, "raw_oneway": false, "raw_direction": null, "osm_name": null, "osm_type": null, "osm_lanes": null, "osm_oneway": null, "osm_distance": null, "osm_maxspeed": null, "osmid": null }, "geometry": { "type": "Point", "coordinates": [ -1.69018465529738, 48.10952723774254 ] } },
{ "type": "Feature", "properties": { "AADT": 9290.5, "TR_AADT": null, "s85": null, "TR_s85": null, "savg": null, "TR_savg": null, "raw_oneway": false, "raw_direction": null, "osm_name": "Quai d'Ille et Rance", "osm_type": "primary", "osm_lanes": 3.0, "osm_oneway": "True", "osm_distance": 2.1008692262437894, "osm_maxspeed": 30.0, "osmid": 23088201.0 }, "geometry": { "type": "Point", "coordinates": [ -1.686657949570154, 48.111132916006426 ] } },
{ "type": "Feature", "properties": { "AADT": 3617.9, "TR_AADT": 142.1, "s85": 37.6, "TR_s85": 36.2, "savg": 29.3, "TR_savg": 27.8, "raw_oneway": false, "raw_direction": null, "osm_name": "Rue des Landes", "osm_type": "tertiary", "osm_lanes": 2.0, "osm_oneway": null, "osm_distance": 0.49800943645766554, "osm_maxspeed": 30.0, "osmid": 1327259591.0 }, "geometry": { "type": "Point", "coordinates": [ -1.619625846456973, 48.089186935292005 ] } },
{ "type": "Feature", "properties": { "AADT": 2030.0, "TR_AADT": 36.0, "s85": 38.5, "TR_s85": 37.1, "savg": 30.4, "TR_savg": 28.1, "raw_oneway": false, "raw_direction": null, "osm_name": "Rue de Hongrie", "osm_type": "residential", "osm_lanes": null, "osm_oneway": null, "osm_distance": 1.4914540602849755, "osm_maxspeed": 30.0, "osmid": 81993955.0 }, "geometry": { "type": "Point", "coordinates": [ -1.657346517510529, 48.09059809972171 ] } },
{ "type": "Feature", "properties": { "AADT": 1615.8, "TR_AADT": 68.5, "s85": 43.0, "TR_s85": 36.9, "savg": 34.3, "TR_savg": 28.3, "raw_oneway": false, "raw_direction": null, "osm_name": "Rue Michel Gérard", "osm_type": "tertiary", "osm_lanes": 2.0, "osm_oneway": "False", "osm_distance": 0.30146237359192268, "osm_maxspeed": 40.0, "osmid": 628052671.0 }, "geometry": { "type": "Point", "coordinates": [ -1.72331395328451, 48.157166093878722 ] } },
{ "type": "Feature", "properties": { "AADT": 3451.7, "TR_AADT": null, "s85": null, "TR_s85": null, "savg": null, "TR_savg": null, "raw_oneway": false, "raw_direction": null, "osm_name": "Rue de Saint-Laurent", "osm_type": "tertiary", "osm_lanes": null, "osm_oneway": null, "osm_distance": 1.5584172972298942, "osm_maxspeed": 30.0, "osmid": 317251203.0 }, "geometry": { "type": "Point", "coordinates": [ -1.654539502816064, 48.138539166031833 ] } },
{ "type": "Feature", "properties": { "AADT": 5564.8, "TR_AADT": 63.3, "s85": 41.4, "TR_s85": 40.3, "savg": 32.2, "TR_savg": 30.8, "raw_oneway": false, "raw_direction": null, "osm_name": "Quai de la Prévalaye", "osm_type": "primary", "osm_lanes": 1.0, "osm_oneway": "True", "osm_distance": 2.085032891674051, "osm_maxspeed": null, "osmid": 265098404.0 }, "geometry": { "type": "Point", "coordinates": [ -1.687110474285173, 48.108930113380005 ] } },
{ "type": "Feature", "properties": { "AADT": 13921.5, "TR_AADT": null, "s85": null, "TR_s85": null, "savg": null, "TR_savg": null, "raw_oneway": false, "raw_direction": null, "osm_name": "Pont Saint-Hélier", "osm_type": "primary", "osm_lanes": 1.0, "osm_oneway": "True", "osm_distance": 1.1792476061168107, "osm_maxspeed": 30.0, "osmid": 263489807.0 }, "geometry": { "type": "Point", "coordinates": [ -1.663885981305915, 48.104273189351233 ] } },
{ "type": "Feature", "properties": { "AADT": 5594.7, "TR_AADT": null, "s85": null, "TR_s85": null, "savg": null, "TR_savg": null, "raw_oneway": false, "raw_direction": null, "osm_name": "Avenue Gros Malhon", "osm_type": "tertiary", "osm_lanes": 2.0, "osm_oneway": null, "osm_distance": 0.56105504356238889, "osm_maxspeed": 30.0, "osmid": 199686524.0 }, "geometry": { "type": "Point", "coordinates": [ -1.682675060547901, 48.126288420646567 ] } },
{ "type": "Feature", "properties": { "AADT": 13830.0, "TR_AADT": 240.0, "s85": 38.1, "TR_s85": 36.2, "savg": 27.9, "TR_savg": 22.8, "raw_oneway": false, "raw_direction": null, "osm_name": "Boulevard de la Liberté", "osm_type": "primary", "osm_lanes": 1.0, "osm_oneway": "True", "osm_distance": 1.3450872291118232, "osm_maxspeed": 30.0, "osmid": 142193379.0 }, "geometry": { "type": "Point", "coordinates": [ -1.681417601676541, 48.107761648698521 ] } },
{ "type": "Feature", "properties": { "AADT": 1503.2, "TR_AADT": null, "s85": null, "TR_s85": null, "savg": null, "TR_savg": null, "raw_oneway": false, "raw_direction": null, "osm_name": "Rue Charles Laurent", "osm_type": "tertiary", "osm_lanes": 2.0, "osm_oneway": "True", "osm_distance": 3.7359466643851582, "osm_maxspeed": 30.0, "osmid": 8101366.0 }, "geometry": { "type": "Point", "coordinates": [ -1.682758939834958, 48.123650423789016 ] } },
{ "type": "Feature", "properties": { "AADT": 1916.2, "TR_AADT": null, "s85": null, "TR_s85": null, "savg": null, "TR_savg": null, "raw_oneway": false, "raw_direction": null, "osm_name": "Boulevard de la Duchesse Anne", "osm_type": "secondary", "osm_lanes": 1.0, "osm_oneway": "True", "osm_distance": 4.234996415632815, "osm_maxspeed": 30.0, "osmid": 49426740.0 }, "geometry": { "type": "Point", "coordinates": [ -1.668863859713363, 48.121619903815592 ] } },
{ "type": "Feature", "properties": { "AADT": 3698.1, "TR_AADT": null, "s85": null, "TR_s85": null, "savg": null, "TR_savg": null, "raw_oneway": false, "raw_direction": null, "osm_name": "Rue d'Antrain", "osm_type": "secondary", "osm_lanes": 2.0, "osm_oneway": null, "osm_distance": 0.689050426495042, "osm_maxspeed": 30.0, "osmid": 339766020.0 }, "geometry": { "type": "Point", "coordinates": [ -1.674497666682373, 48.11945558352253 ] } },
{ "type": "Feature", "properties": { "AADT": 226.7, "TR_AADT": 4.3, "s85": 42.5, "TR_s85": 46.8, "savg": 32.8, "TR_savg": 30.0, "raw_oneway": false, "raw_direction": null, "osm_name": "Route de la Grasnière", "osm_type": "unclassified", "osm_lanes": null, "osm_oneway": null, "osm_distance": 0.56183033794803483, "osm_maxspeed": null, "osmid": 545622063.0 }, "geometry": { "type": "Point", "coordinates": [ -1.710775292706446, 48.133632450356991 ] } },
{ "type": "Feature", "properties": { "AADT": 1483.5, "TR_AADT": 18.1, "s85": 79.5, "TR_s85": 80.5, "savg": 72.9, "TR_savg": 66.6, "raw_oneway": false, "raw_direction": null, "osm_name": null, "osm_type": "tertiary", "osm_lanes": 2.0, "osm_oneway": "False", "osm_distance": 0.71934942888500752, "osm_maxspeed": null, "osmid": 23901798.0 }, "geometry": { "type": "Point", "coordinates": [ -1.712133132679603, 47.995262579470015 ] } },
{ "type": "Feature", "properties": { "AADT": 18891.6, "TR_AADT": null, "s85": null, "TR_s85": null, "savg": null, "TR_savg": null, "raw_oneway": false, "raw_direction": null, "osm_name": "Rue de Saint-Malo", "osm_type": "primary", "osm_lanes": 2.0, "osm_oneway": "True", "osm_distance": 0.91024975419357956, "osm_maxspeed": 50.0, "osmid": 265950648.0 }, "geometry": { "type": "Point", "coordinates": [ -1.685564675714966, 48.125617284977864 ] } },
{ "type": "Feature", "properties": { "AADT": 13906.8, "TR_AADT": null, "s85": null, "TR_s85": null, "savg": null, "TR_savg": null, "raw_oneway": false, "raw_direction": null, "osm_name": "Avenue Gros Malhon", "osm_type": "secondary", "osm_lanes": 2.0, "osm_oneway": "True", "osm_distance": 5.9639103686796906, "osm_maxspeed": 50.0, "osmid": 25975864.0 }, "geometry": { "type": "Point", "coordinates": [ -1.683914530695922, 48.129196093418813 ] } },
{ "type": "Feature", "properties": { "AADT": 4318.0, "TR_AADT": 220.0, "s85": 37.8, "TR_s85": 61.2, "savg": 29.7, "TR_savg": 49.3, "raw_oneway": false, "raw_direction": null, "osm_name": "Avenue du Bois Labbé", "osm_type": "tertiary", "osm_lanes": 2.0, "osm_oneway": null, "osm_distance": 0.89675646473276527, "osm_maxspeed": null, "osmid": 27560696.0 }, "geometry": { "type": "Point", "coordinates": [ -1.703414618971315, 48.129134016283189 ] } },
{ "type": "Feature", "properties": { "AADT": 1490.0, "TR_AADT": null, "s85": null, "TR_s85": null, "savg": null, "TR_savg": null, "raw_oneway": false, "raw_direction": null, "osm_name": "Rue de Picardie", "osm_type": "tertiary", "osm_lanes": null, "osm_oneway": null, "osm_distance": 3.3441720059111422, "osm_maxspeed": 30.0, "osmid": 5107000.0 }, "geometry": { "type": "Point", "coordinates": [ -1.710944083658451, 48.123005101215362 ] } },
{ "type": "Feature", "properties": { "AADT": 1072.5, "TR_AADT": null, "s85": null, "TR_s85": null, "savg": null, "TR_savg": null, "raw_oneway": false, "raw_direction": null, "osm_name": "Avenue du Bois Labbé", "osm_type": "tertiary", "osm_lanes": 2.0, "osm_oneway": null, "osm_distance": 2.792959599670354, "osm_maxspeed": null, "osmid": 934394278.0 }, "geometry": { "type": "Point", "coordinates": [ -1.70315513106067, 48.126264081173446 ] } },
{ "type": "Feature", "properties": { "AADT": 10520.9, "TR_AADT": null, "s85": null, "TR_s85": null, "savg": null, "TR_savg": null, "raw_oneway": false, "raw_direction": null, "osm_name": "Avenue des Gayeulles", "osm_type": "tertiary", "osm_lanes": null, "osm_oneway": "False", "osm_distance": 0.25678143667051334, "osm_maxspeed": 30.0, "osmid": 4913502.0 }, "geometry": { "type": "Point", "coordinates": [ -1.652087733334502, 48.129444767434919 ] } },
{ "type": "Feature", "properties": { "AADT": 114.8, "TR_AADT": 7.3, "s85": 29.9, "TR_s85": 96.3, "savg": 27.5, "TR_savg": 50.3, "raw_oneway": false, "raw_direction": null, "osm_name": "Quai Duguay Trouin", "osm_type": "living_street", "osm_lanes": 1.0, "osm_oneway": "True", "osm_distance": 0.097652751202825155, "osm_maxspeed": 20.0, "osmid": 23162201.0 }, "geometry": { "type": "Point", "coordinates": [ -1.682063293835985, 48.110172246843668 ] } },
{ "type": "Feature", "properties": { "AADT": 3338.8, "TR_AADT": null, "s85": null, "TR_s85": null, "savg": null, "TR_savg": null, "raw_oneway": false, "raw_direction": null, "osm_name": "Boulevard Jacques Cartier", "osm_type": "tertiary", "osm_lanes": 2.0, "osm_oneway": "False", "osm_distance": 1.1573717402778663, "osm_maxspeed": 30.0, "osmid": 24797182.0 }, "geometry": { "type": "Point", "coordinates": [ -1.677676610994443, 48.097054820340809 ] } },
{ "type": "Feature", "properties": { "AADT": 8819.1, "TR_AADT": null, "s85": null, "TR_s85": null, "savg": null, "TR_savg": null, "raw_oneway": false, "raw_direction": null, "osm_name": "Boulevard du Portugal", "osm_type": "tertiary", "osm_lanes": null, "osm_oneway": "True", "osm_distance": 1.3785772370598381, "osm_maxspeed": 30.0, "osmid": 436160809.0 }, "geometry": { "type": "Point", "coordinates": [ -1.672696777607609, 48.083627974490504 ] } },
{ "type": "Feature", "properties": { "AADT": 604.0, "TR_AADT": 11.0, "s85": 42.4, "TR_s85": 93.5, "savg": 34.0, "TR_savg": 50.9, "raw_oneway": false, "raw_direction": null, "osm_name": "Rue Anatole France", "osm_type": "residential", "osm_lanes": null, "osm_oneway": null, "osm_distance": 0.049122641595551672, "osm_maxspeed": 30.0, "osmid": 32885798.0 }, "geometry": { "type": "Point", "coordinates": [ -1.685977469465868, 48.118990053847327 ] } },
{ "type": "Feature", "properties": { "AADT": 5653.5, "TR_AADT": null, "s85": null, "TR_s85": null, "savg": null, "TR_savg": null, "raw_oneway": false, "raw_direction": null, "osm_name": "Boulevard Georges Clemenceau", "osm_type": "primary", "osm_lanes": 1.0, "osm_oneway": "True", "osm_distance": 1.9533505370089377, "osm_maxspeed": 50.0, "osmid": 49277237.0 }, "geometry": { "type": "Point", "coordinates": [ -1.676573796382326, 48.093935870546026 ] } },
{ "type": "Feature", "properties": { "AADT": 1552.0, "TR_AADT": null, "s85": null, "TR_s85": null, "savg": null, "TR_savg": null, "raw_oneway": false, "raw_direction": null, "osm_name": "Avenue de la Préfecture", "osm_type": "tertiary", "osm_lanes": 2.0, "osm_oneway": null, "osm_distance": 1.0498998944659212, "osm_maxspeed": 30.0, "osmid": 5069338.0 }, "geometry": { "type": "Point", "coordinates": [ -1.693311913057662, 48.127239468609865 ] } },
{ "type": "Feature", "properties": { "AADT": 2081.0, "TR_AADT": null, "s85": null, "TR_s85": null, "savg": null, "TR_savg": null, "raw_oneway": false, "raw_direction": null, "osm_name": "Rue Henri Le Guilloux", "osm_type": "tertiary", "osm_lanes": 2.0, "osm_oneway": null, "osm_distance": 4.3531396125982456, "osm_maxspeed": null, "osmid": 119105550.0 }, "geometry": { "type": "Point", "coordinates": [ -1.698527101224369, 48.115540477246746 ] } },
{ "type": "Feature", "properties": { "AADT": 461.0, "TR_AADT": 42.5, "s85": 71.1, "TR_s85": 71.0, "savg": 56.3, "TR_savg": 53.2, "raw_oneway": false, "raw_direction": null, "osm_name": null, "osm_type": "unclassified", "osm_lanes": null, "osm_oneway": null, "osm_distance": 0.06432399664634611, "osm_maxspeed": null, "osmid": 172989730.0 }, "geometry": { "type": "Point", "coordinates": [ -1.574765120297302, 48.041023424047097 ] } },
{ "type": "Feature", "properties": { "AADT": 670.0, "TR_AADT": 7.2, "s85": 33.2, "TR_s85": 29.8, "savg": 25.9, "TR_savg": 24.1, "raw_oneway": false, "raw_direction": null, "osm_name": "Rue Fréron", "osm_type": "residential", "osm_lanes": null, "osm_oneway": null, "osm_distance": 0.019435341856239796, "osm_maxspeed": 30.0, "osmid": 508244755.0 }, "geometry": { "type": "Point", "coordinates": [ -1.663480581900705, 48.097442860816663 ] } },
{ "type": "Feature", "properties": { "AADT": 2458.0, "TR_AADT": null, "s85": null, "TR_s85": null, "savg": null, "TR_savg": null, "raw_oneway": false, "raw_direction": null, "osm_name": "Rue du Recteur Paul Henry", "osm_type": "unclassified", "osm_lanes": 2.0, "osm_oneway": null, "osm_distance": 0.34650828107131498, "osm_maxspeed": 30.0, "osmid": 313981383.0 }, "geometry": { "type": "Point", "coordinates": [ -1.700220371236655, 48.123466182261389 ] } },
{ "type": "Feature", "properties": { "AADT": 3578.0, "TR_AADT": 239.0, "s85": 49.8, "TR_s85": 47.1, "savg": 38.5, "TR_savg": 37.1, "raw_oneway": false, "raw_direction": null, "osm_name": "Rue Charles Géniaux", "osm_type": "tertiary", "osm_lanes": null, "osm_oneway": null, "osm_distance": 0.62437015602185864, "osm_maxspeed": null, "osmid": 25934813.0 }, "geometry": { "type": "Point", "coordinates": [ -1.710616527419806, 48.110307727179389 ] } },
{ "type": "Feature", "properties": { "AADT": 15802.7, "TR_AADT": null, "s85": 51.8, "TR_s85": null, "savg": 40.6, "TR_savg": null, "raw_oneway": false, "raw_direction": null, "osm_name": "Rue de Châteaugiron", "osm_type": "secondary", "osm_lanes": 2.0, "osm_oneway": null, "osm_distance": 1.2278180609675386, "osm_maxspeed": 50.0, "osmid": 462932896.0 }, "geometry": { "type": "Point", "coordinates": [ -1.6311684295896, 48.09301363854177 ] } },
{ "type": "Feature", "properties": { "AADT": 3937.6, "TR_AADT": null, "s85": null, "TR_s85": null, "savg": null, "TR_savg": null, "raw_oneway": false, "raw_direction": null, "osm_name": "Rue Charles Géniaux", "osm_type": "tertiary", "osm_lanes": 2.0, "osm_oneway": null, "osm_distance": 1.2099142884347112, "osm_maxspeed": 30.0, "osmid": 5677084.0 }, "geometry": { "type": "Point", "coordinates": [ -1.713547189409453, 48.112760982056017 ] } },
{ "type": "Feature", "properties": { "AADT": 4464.0, "TR_AADT": 291.0, "s85": 45.4, "TR_s85": 39.8, "savg": 34.3, "TR_savg": 32.4, "raw_oneway": false, "raw_direction": null, "osm_name": "Boulevard de la Guérinais", "osm_type": "tertiary", "osm_lanes": 2.0, "osm_oneway": null, "osm_distance": 0.074234558927761998, "osm_maxspeed": null, "osmid": 7981146.0 }, "geometry": { "type": "Point", "coordinates": [ -1.711318708144117, 48.100265151968756 ] } },
{ "type": "Feature", "properties": { "AADT": 11090.9, "TR_AADT": 475.8, "s85": 48.1, "TR_s85": 43.6, "savg": 38.4, "TR_savg": 35.0, "raw_oneway": false, "raw_direction": null, "osm_name": "Boulevard Paul Hutin-Desgrées", "osm_type": "secondary", "osm_lanes": 2.0, "osm_oneway": null, "osm_distance": 0.53719241423306785, "osm_maxspeed": 30.0, "osmid": 23273872.0 }, "geometry": { "type": "Point", "coordinates": [ -1.63854492288211, 48.093937650247028 ] } },
{ "type": "Feature", "properties": { "AADT": 34231.3, "TR_AADT": null, "s85": 56.7, "TR_s85": null, "savg": 41.9, "TR_savg": null, "raw_oneway": false, "raw_direction": null, "osm_name": "Rue de Lorient", "osm_type": "primary", "osm_lanes": 2.0, "osm_oneway": "True", "osm_distance": 4.6077909023639076, "osm_maxspeed": 50.0, "osmid": 396438324.0 }, "geometry": { "type": "Point", "coordinates": [ -1.737502813336949, 48.104814501931074 ] } },
{ "type": "Feature", "properties": { "AADT": 10490.2, "TR_AADT": 115.2, "s85": 48.2, "TR_s85": 46.6, "savg": 38.9, "TR_savg": 35.7, "raw_oneway": false, "raw_direction": null, "osm_name": "Boulevard Albert 1er", "osm_type": "secondary", "osm_lanes": 1.0, "osm_oneway": "True", "osm_distance": 6.5014118268303918, "osm_maxspeed": 30.0, "osmid": 26850019.0 }, "geometry": { "type": "Point", "coordinates": [ -1.688413489601531, 48.090018003381616 ] } },
{ "type": "Feature", "properties": { "AADT": 14062.9, "TR_AADT": null, "s85": 86.8, "TR_s85": null, "savg": 73.8, "TR_savg": null, "raw_oneway": false, "raw_direction": null, "osm_name": null, "osm_type": "primary", "osm_lanes": null, "osm_oneway": null, "osm_distance": 0.83770861296862942, "osm_maxspeed": 80.0, "osmid": 118745453.0 }, "geometry": { "type": "Point", "coordinates": [ -1.630104026001896, 48.155267771998147 ] } },
{ "type": "Feature", "properties": { "AADT": 936.0, "TR_AADT": 32.0, "s85": 31.6, "TR_s85": 31.0, "savg": 23.8, "TR_savg": 25.8, "raw_oneway": false, "raw_direction": null, "osm_name": "Rue des Ormeaux", "osm_type": "residential", "osm_lanes": null, "osm_oneway": "True", "osm_distance": 4.1550407176120219, "osm_maxspeed": 30.0, "osmid": 1307164794.0 }, "geometry": { "type": "Point", "coordinates": [ -1.669546287682115, 48.100479654294269 ] } },
{ "type": "Feature", "properties": { "AADT": 112.0, "TR_AADT": 1.0, "s85": 24.3, "TR_s85": 38.5, "savg": 13.9, "TR_savg": 35.0, "raw_oneway": false, "raw_direction": null, "osm_name": "Rue du Révérend Père Chaillet", "osm_type": "service", "osm_lanes": null, "osm_oneway": null, "osm_distance": 0.88949590887349672, "osm_maxspeed": null, "osmid": 552180965.0 }, "geometry": { "type": "Point", "coordinates": [ -1.690476715571034, 48.129961105649059 ] } },
{ "type": "Feature", "properties": { "AADT": 4538.5, "TR_AADT": 92.9, "s85": 37.7, "TR_s85": 39.7, "savg": 28.7, "TR_savg": 31.6, "raw_oneway": false, "raw_direction": null, "osm_name": "Boulevard Albert 1er", "osm_type": "tertiary", "osm_lanes": null, "osm_oneway": null, "osm_distance": 1.8812921626766419, "osm_maxspeed": null, "osmid": 934747522.0 }, "geometry": { "type": "Point", "coordinates": [ -1.677066673121461, 48.08893822758381 ] } },
{ "type": "Feature", "properties": { "AADT": 20316.3, "TR_AADT": null, "s85": 105.7, "TR_s85": null, "savg": 89.5, "TR_savg": null, "raw_oneway": false, "raw_direction": null, "osm_name": null, "osm_type": "trunk", "osm_lanes": 2.0, "osm_oneway": "True", "osm_distance": 4.9860218226952817, "osm_maxspeed": 90.0, "osmid": 147221567.0 }, "geometry": { "type": "Point", "coordinates": [ -1.624712478994312, 48.146031816998686 ] } },
{ "type": "Feature", "properties": { "AADT": 231.6, "TR_AADT": 15.3, "s85": 45.5, "TR_s85": 38.6, "savg": 34.3, "TR_savg": 25.5, "raw_oneway": false, "raw_direction": null, "osm_name": "Avenue Simone Veil", "osm_type": "residential", "osm_lanes": null, "osm_oneway": null, "osm_distance": 0.53120764687485977, "osm_maxspeed": 30.0, "osmid": 838802234.0 }, "geometry": { "type": "Point", "coordinates": [ -1.629146354806883, 48.18217755264174 ] } },
{ "type": "Feature", "properties": { "AADT": 1648.2, "TR_AADT": 51.5, "s85": 38.0, "TR_s85": 33.3, "savg": 30.0, "TR_savg": 26.7, "raw_oneway": false, "raw_direction": null, "osm_name": "Rue du Docteur Laennec", "osm_type": "unclassified", "osm_lanes": 2.0, "osm_oneway": "True", "osm_distance": 0.40130693342069779, "osm_maxspeed": 30.0, "osmid": 401787060.0 }, "geometry": { "type": "Point", "coordinates": [ -1.637362280323072, 48.180513279835012 ] } },
{ "type": "Feature", "properties": { "AADT": 5095.1, "TR_AADT": 263.7, "s85": 31.6, "TR_s85": 29.0, "savg": 21.7, "TR_savg": 19.0, "raw_oneway": false, "raw_direction": null, "osm_name": "Avenue de la Haye Renaud", "osm_type": "secondary", "osm_lanes": 2.0, "osm_oneway": null, "osm_distance": 0.94654028430739234, "osm_maxspeed": 30.0, "osmid": 4769018.0 }, "geometry": { "type": "Point", "coordinates": [ -1.635586083204424, 48.18061197502476 ] } },
{ "type": "Feature", "properties": { "AADT": 1362.1, "TR_AADT": 113.3, "s85": 48.0, "TR_s85": 47.8, "savg": 37.9, "TR_savg": 37.8, "raw_oneway": false, "raw_direction": null, "osm_name": "Rue des Oiseaux", "osm_type": "residential", "osm_lanes": null, "osm_oneway": null, "osm_distance": 0.5877351649438024, "osm_maxspeed": null, "osmid": 31723066.0 }, "geometry": { "type": "Point", "coordinates": [ -1.701981082020686, 48.006768317393671 ] } },
{ "type": "Feature", "properties": { "AADT": 16834.4, "TR_AADT": null, "s85": 89.2, "TR_s85": null, "savg": 78.3, "TR_savg": null, "raw_oneway": false, "raw_direction": null, "osm_name": null, "osm_type": "primary", "osm_lanes": 2.0, "osm_oneway": null, "osm_distance": 0.29258822854599653, "osm_maxspeed": 80.0, "osmid": 25130335.0 }, "geometry": { "type": "Point", "coordinates": [ -1.779312508995198, 48.105538048001961 ] } },
{ "type": "Feature", "properties": { "AADT": 3211.8, "TR_AADT": 214.8, "s85": 67.4, "TR_s85": 67.7, "savg": 55.8, "TR_savg": 55.3, "raw_oneway": false, "raw_direction": null, "osm_name": "Rue Frédéric Benoist", "osm_type": "secondary", "osm_lanes": 2.0, "osm_oneway": null, "osm_distance": 0.79817811796075477, "osm_maxspeed": 50.0, "osmid": 625255896.0 }, "geometry": { "type": "Point", "coordinates": [ -1.717183180146301, 48.086662779332194 ] } },
{ "type": "Feature", "properties": { "AADT": 1035.5, "TR_AADT": 10.0, "s85": 41.6, "TR_s85": 39.6, "savg": 34.1, "TR_savg": 30.5, "raw_oneway": false, "raw_direction": null, "osm_name": "Rue de l'Odet", "osm_type": "tertiary", "osm_lanes": null, "osm_oneway": null, "osm_distance": 0.96845743788156513, "osm_maxspeed": null, "osmid": 9227911.0 }, "geometry": { "type": "Point", "coordinates": [ -1.689677880714077, 48.148521854508388 ] } },
{ "type": "Feature", "properties": { "AADT": 2014.2, "TR_AADT": 666.2, "s85": 67.8, "TR_s85": 59.2, "savg": 56.7, "TR_savg": 51.3, "raw_oneway": false, "raw_direction": null, "osm_name": null, "osm_type": "tertiary", "osm_lanes": 2.0, "osm_oneway": null, "osm_distance": 2.9947626646140688, "osm_maxspeed": 50.0, "osmid": 24718158.0 }, "geometry": { "type": "Point", "coordinates": [ -1.511332702065292, 48.107971274029261 ] } },
{ "type": "Feature", "properties": { "AADT": 2468.0, "TR_AADT": 20.0, "s85": 67.8, "TR_s85": 86.4, "savg": 60.0, "TR_savg": 66.3, "raw_oneway": false, "raw_direction": null, "osm_name": null, "osm_type": "secondary", "osm_lanes": null, "osm_oneway": null, "osm_distance": 1.9997206349332666, "osm_maxspeed": null, "osmid": 173740501.0 }, "geometry": { "type": "Point", "coordinates": [ -1.727835045908195, 47.957474091923821 ] } },
{ "type": "Feature", "properties": { "AADT": 1098.7, "TR_AADT": 40.0, "s85": 46.5, "TR_s85": 43.3, "savg": 36.8, "TR_savg": 33.6, "raw_oneway": false, "raw_direction": null, "osm_name": "Rue Josette et Maurice Audin", "osm_type": "unclassified", "osm_lanes": null, "osm_oneway": "True", "osm_distance": 0.18838535168604287, "osm_maxspeed": 30.0, "osmid": 594743919.0 }, "geometry": { "type": "Point", "coordinates": [ -1.650375426352436, 48.138319098163684 ] } },
{ "type": "Feature", "properties": { "AADT": 204.5, "TR_AADT": 29.2, "s85": 27.9, "TR_s85": 28.0, "savg": 20.2, "TR_savg": 19.7, "raw_oneway": false, "raw_direction": null, "osm_name": null, "osm_type": "service", "osm_lanes": null, "osm_oneway": null, "osm_distance": 0.03918209210342824, "osm_maxspeed": null, "osmid": 1083558076.0 }, "geometry": { "type": "Point", "coordinates": [ -1.594230634580889, 48.01417782528349 ] } },
{ "type": "Feature", "properties": { "AADT": 5897.3, "TR_AADT": 75.3, "s85": 34.3, "TR_s85": 29.9, "savg": 25.6, "TR_savg": 23.1, "raw_oneway": false, "raw_direction": null, "osm_name": "Rue de la Duchesse Anne", "osm_type": "tertiary", "osm_lanes": 2.0, "osm_oneway": null, "osm_distance": 0.076587427267767183, "osm_maxspeed": 30.0, "osmid": 144432001.0 }, "geometry": { "type": "Point", "coordinates": [ -1.679888744864352, 48.150356695465561 ] } },
{ "type": "Feature", "properties": { "AADT": 5723.0, "TR_AADT": 61.6, "s85": 42.7, "TR_s85": 39.9, "savg": 33.3, "TR_savg": 29.5, "raw_oneway": false, "raw_direction": null, "osm_name": "Rue de Rennes", "osm_type": "service", "osm_lanes": null, "osm_oneway": "False", "osm_distance": 0.20405785755432096, "osm_maxspeed": null, "osmid": 60674417.0 }, "geometry": { "type": "Point", "coordinates": [ -1.626117096166699, 48.114125437519114 ] } },
{ "type": "Feature", "properties": { "AADT": 27133.0, "TR_AADT": null, "s85": 67.9, "TR_s85": null, "savg": 50.5, "TR_savg": null, "raw_oneway": false, "raw_direction": null, "osm_name": null, "osm_type": "primary", "osm_lanes": 2.0, "osm_oneway": null, "osm_distance": 2.1777868159449509, "osm_maxspeed": 80.0, "osmid": 173399534.0 }, "geometry": { "type": "Point", "coordinates": [ -1.693265127006578, 48.041371767999287 ] } },
{ "type": "Feature", "properties": { "AADT": 1447.3, "TR_AADT": null, "s85": null, "TR_s85": null, "savg": null, "TR_savg": null, "raw_oneway": false, "raw_direction": null, "osm_name": "Boulevard de Cleunay", "osm_type": "secondary", "osm_lanes": 2.0, "osm_oneway": "False", "osm_distance": 0.92907433245907334, "osm_maxspeed": 30.0, "osmid": 854246968.0 }, "geometry": { "type": "Point", "coordinates": [ -1.696853837501996, 48.102499991232641 ] } },
{ "type": "Feature", "properties": { "AADT": 211.0, "TR_AADT": 10.0, "s85": 27.1, "TR_s85": 27.0, "savg": 17.6, "TR_savg": 17.5, "raw_oneway": false, "raw_direction": null, "osm_name": "Rue France Perrot", "osm_type": "living_street", "osm_lanes": null, "osm_oneway": null, "osm_distance": 0.90404784600259069, "osm_maxspeed": 20.0, "osmid": 22935244.0 }, "geometry": { "type": "Point", "coordinates": [ -1.668299465469251, 48.090624398087115 ] } },
{ "type": "Feature", "properties": { "AADT": 1029.2, "TR_AADT": 9.5, "s85": 39.8, "TR_s85": 37.9, "savg": 33.9, "TR_savg": 29.5, "raw_oneway": false, "raw_direction": null, "osm_name": "Rue du Vau Chalet", "osm_type": "tertiary", "osm_lanes": 2.0, "osm_oneway": null, "osm_distance": 0.75799935609544455, "osm_maxspeed": 50.0, "osmid": 401613297.0 }, "geometry": { "type": "Point", "coordinates": [ -1.654027663882776, 48.173873928537517 ] } },
{ "type": "Feature", "properties": { "AADT": 2347.7, "TR_AADT": 61.0, "s85": 86.6, "TR_s85": 80.7, "savg": 75.1, "TR_savg": 70.6, "raw_oneway": false, "raw_direction": null, "osm_name": "Route de l'Hermitage", "osm_type": "secondary", "osm_lanes": null, "osm_oneway": null, "osm_distance": 1.3288134510315672, "osm_maxspeed": null, "osmid": 24188184.0 }, "geometry": { "type": "Point", "coordinates": [ -1.804440274816377, 48.110135672426551 ] } },
{ "type": "Feature", "properties": { "AADT": 750.8, "TR_AADT": 48.2, "s85": 49.3, "TR_s85": 48.8, "savg": 40.5, "TR_savg": 39.5, "raw_oneway": false, "raw_direction": null, "osm_name": "Rue de Vaugon", "osm_type": "unclassified", "osm_lanes": null, "osm_oneway": null, "osm_distance": 0.030696881636670011, "osm_maxspeed": 30.0, "osmid": 48160292.0 }, "geometry": { "type": "Point", "coordinates": [ -1.596033178779438, 48.030962598981034 ] } },
{ "type": "Feature", "properties": { "AADT": 1827.7, "TR_AADT": 178.3, "s85": 92.1, "TR_s85": 96.1, "savg": 74.2, "TR_savg": 75.3, "raw_oneway": false, "raw_direction": null, "osm_name": null, "osm_type": "secondary", "osm_lanes": null, "osm_oneway": null, "osm_distance": 0.65615219301237071, "osm_maxspeed": 80.0, "osmid": 288935896.0 }, "geometry": { "type": "Point", "coordinates": [ -1.567646569851143, 47.978950066695326 ] } },
{ "type": "Feature", "properties": { "AADT": 208.3, "TR_AADT": 16.3, "s85": 36.7, "TR_s85": 84.7, "savg": 26.7, "TR_savg": 38.6, "raw_oneway": false, "raw_direction": null, "osm_name": null, "osm_type": "unclassified", "osm_lanes": null, "osm_oneway": null, "osm_distance": 0.33886365389359052, "osm_maxspeed": null, "osmid": 43128122.0 }, "geometry": { "type": "Point", "coordinates": [ -1.57347081970639, 47.982386304456369 ] } },
{ "type": "Feature", "properties": { "AADT": 72.8, "TR_AADT": 2.5, "s85": 61.0, "TR_s85": 64.3, "savg": 48.5, "TR_savg": 48.6, "raw_oneway": false, "raw_direction": null, "osm_name": null, "osm_type": "unclassified", "osm_lanes": null, "osm_oneway": null, "osm_distance": 0.65423904419375245, "osm_maxspeed": null, "osmid": 285975065.0 }, "geometry": { "type": "Point", "coordinates": [ -1.896323733207076, 48.266828001060574 ] } },
{ "type": "Feature", "properties": { "AADT": 553.0, "TR_AADT": 15.2, "s85": 68.7, "TR_s85": 65.6, "savg": 56.1, "TR_savg": 51.8, "raw_oneway": false, "raw_direction": null, "osm_name": null, "osm_type": "tertiary", "osm_lanes": null, "osm_oneway": null, "osm_distance": 1.8999184111069147, "osm_maxspeed": null, "osmid": 24048610.0 }, "geometry": { "type": "Point", "coordinates": [ -1.572944394115331, 48.024421895807052 ] } },
{ "type": "Feature", "properties": { "AADT": 16.8, "TR_AADT": 0.6, "s85": 51.3, "TR_s85": 49.2, "savg": 43.1, "TR_savg": 41.0, "raw_oneway": false, "raw_direction": null, "osm_name": "Rue Madeleine Brès", "osm_type": "unclassified", "osm_lanes": null, "osm_oneway": null, "osm_distance": 0.2006596699225453, "osm_maxspeed": null, "osmid": 24876818.0 }, "geometry": { "type": "Point", "coordinates": [ -1.805269083049974, 48.12376249882751 ] } },
{ "type": "Feature", "properties": { "AADT": 887.8, "TR_AADT": 9.4, "s85": 65.1, "TR_s85": 61.9, "savg": 51.5, "TR_savg": 47.3, "raw_oneway": false, "raw_direction": null, "osm_name": "Rue des Tulipes", "osm_type": "living_street", "osm_lanes": null, "osm_oneway": null, "osm_distance": 0.24086711829860508, "osm_maxspeed": 20.0, "osmid": 25806091.0 }, "geometry": { "type": "Point", "coordinates": [ -1.754155878294982, 48.117362321618721 ] } },
{ "type": "Feature", "properties": { "AADT": 990.3, "TR_AADT": 74.0, "s85": 64.4, "TR_s85": 58.8, "savg": 48.6, "TR_savg": 45.5, "raw_oneway": false, "raw_direction": null, "osm_name": "Route de la Chapelle-des-Fougeretz", "osm_type": "tertiary", "osm_lanes": null, "osm_oneway": "False", "osm_distance": 0.90999472851823215, "osm_maxspeed": null, "osmid": 211394037.0 }, "geometry": { "type": "Point", "coordinates": [ -1.729508738168038, 48.161610645164522 ] } },
{ "type": "Feature", "properties": { "AADT": 1374.2, "TR_AADT": 14.3, "s85": 66.1, "TR_s85": 62.4, "savg": 56.2, "TR_savg": 50.1, "raw_oneway": false, "raw_direction": null, "osm_name": "Pont de Verrière", "osm_type": "tertiary", "osm_lanes": null, "osm_oneway": null, "osm_distance": 0.17040603035470131, "osm_maxspeed": 50.0, "osmid": 40726525.0 }, "geometry": { "type": "Point", "coordinates": [ -1.772850142036449, 48.115194291636257 ] } },
{ "type": "Feature", "properties": { "AADT": 4805.0, "TR_AADT": 93.0, "s85": 29.1, "TR_s85": 54.3, "savg": 25.5, "TR_savg": 39.5, "raw_oneway": false, "raw_direction": null, "osm_name": "Boulevard Marbeuf", "osm_type": "tertiary", "osm_lanes": 2.0, "osm_oneway": null, "osm_distance": 4.6975545922564486, "osm_maxspeed": 30.0, "osmid": 1208061518.0 }, "geometry": { "type": "Point", "coordinates": [ -1.705308569648927, 48.110103485784443 ] } },
{ "type": "Feature", "properties": { "AADT": 5020.2, "TR_AADT": 179.7, "s85": 49.0, "TR_s85": 48.1, "savg": 41.5, "TR_savg": 38.2, "raw_oneway": false, "raw_direction": null, "osm_name": "Rue de Rennes", "osm_type": "tertiary", "osm_lanes": null, "osm_oneway": null, "osm_distance": 0.16271886113361997, "osm_maxspeed": 30.0, "osmid": 1189786303.0 }, "geometry": { "type": "Point", "coordinates": [ -1.728241894194157, 48.175383040075552 ] } },
{ "type": "Feature", "properties": { "AADT": 1610.2, "TR_AADT": 75.2, "s85": 38.9, "TR_s85": 39.8, "savg": 32.0, "TR_savg": 33.0, "raw_oneway": false, "raw_direction": null, "osm_name": null, "osm_type": "unclassified", "osm_lanes": null, "osm_oneway": null, "osm_distance": 0.33236039377964416, "osm_maxspeed": null, "osmid": 154825034.0 }, "geometry": { "type": "Point", "coordinates": [ -1.659218691470216, 48.015725252252501 ] } },
{ "type": "Feature", "properties": { "AADT": 3841.8, "TR_AADT": 139.3, "s85": 46.2, "TR_s85": 38.4, "savg": 36.0, "TR_savg": 30.3, "raw_oneway": false, "raw_direction": null, "osm_name": "Avenue des Champs Blancs", "osm_type": "tertiary", "osm_lanes": 2.0, "osm_oneway": "False", "osm_distance": 0.82430417652427435, "osm_maxspeed": 50.0, "osmid": 31067600.0 }, "geometry": { "type": "Point", "coordinates": [ -1.613957500640821, 48.128644066869498 ] } },
{ "type": "Feature", "properties": { "AADT": 7079.7, "TR_AADT": 257.0, "s85": 56.7, "TR_s85": 51.1, "savg": 44.9, "TR_savg": 41.3, "raw_oneway": false, "raw_direction": null, "osm_name": "Route de Betton", "osm_type": "secondary", "osm_lanes": 2.0, "osm_oneway": null, "osm_distance": 0.88608181834910227, "osm_maxspeed": 30.0, "osmid": 622332037.0 }, "geometry": { "type": "Point", "coordinates": [ -1.655135606201607, 48.151297285201316 ] } },
{ "type": "Feature", "properties": { "AADT": 2961.2, "TR_AADT": null, "s85": null, "TR_s85": null, "savg": null, "TR_savg": null, "raw_oneway": false, "raw_direction": null, "osm_name": "Rue Guy Ropartz", "osm_type": "tertiary", "osm_lanes": 2.0, "osm_oneway": null, "osm_distance": 0.41861514466817124, "osm_maxspeed": 30.0, "osmid": 707257681.0 }, "geometry": { "type": "Point", "coordinates": [ -1.656725803944965, 48.129155156907224 ] } },
{ "type": "Feature", "properties": { "AADT": 7062.2, "TR_AADT": 77.3, "s85": 52.8, "TR_s85": 49.3, "savg": 44.6, "TR_savg": 42.1, "raw_oneway": false, "raw_direction": null, "osm_name": "Avenue François Château", "osm_type": "primary", "osm_lanes": 1.0, "osm_oneway": "True", "osm_distance": 0.10573239952401124, "osm_maxspeed": 50.0, "osmid": 706985293.0 }, "geometry": { "type": "Point", "coordinates": [ -1.642767190929498, 48.112420735415952 ] } },
{ "type": "Feature", "properties": { "AADT": 4292.1, "TR_AADT": null, "s85": null, "TR_s85": null, "savg": null, "TR_savg": null, "raw_oneway": false, "raw_direction": null, "osm_name": "Rue de Paris", "osm_type": "secondary", "osm_lanes": 2.0, "osm_oneway": null, "osm_distance": 4.1199436681247841, "osm_maxspeed": 30.0, "osmid": 26794089.0 }, "geometry": { "type": "Point", "coordinates": [ -1.662224079358361, 48.113152590768728 ] } },
{ "type": "Feature", "properties": { "AADT": 788.4, "TR_AADT": 53.8, "s85": 33.0, "TR_s85": 29.2, "savg": 25.1, "TR_savg": 21.7, "raw_oneway": false, "raw_direction": null, "osm_name": "Rue du Claray", "osm_type": "residential", "osm_lanes": null, "osm_oneway": null, "osm_distance": 0.8579817713568173, "osm_maxspeed": null, "osmid": 27842814.0 }, "geometry": { "type": "Point", "coordinates": [ -1.762847826449795, 48.037847872242381 ] } },
{ "type": "Feature", "properties": { "AADT": 16613.9, "TR_AADT": null, "s85": null, "TR_s85": null, "savg": null, "TR_savg": null, "raw_oneway": false, "raw_direction": null, "osm_name": "Allée d'Ukraine", "osm_type": "tertiary", "osm_lanes": 2.0, "osm_oneway": "True", "osm_distance": 11.112474385238935, "osm_maxspeed": null, "osmid": 355522353.0 }, "geometry": { "type": "Point", "coordinates": [ -1.675188587984729, 48.08305893378256 ] } },
{ "type": "Feature", "properties": { "AADT": 7527.0, "TR_AADT": 218.0, "s85": 37.0, "TR_s85": 36.1, "savg": 27.3, "TR_savg": 26.0, "raw_oneway": false, "raw_direction": null, "osm_name": "Rue Vaneau", "osm_type": "secondary", "osm_lanes": 2.0, "osm_oneway": null, "osm_distance": 1.2955917285483118, "osm_maxspeed": 30.0, "osmid": 25952485.0 }, "geometry": { "type": "Point", "coordinates": [ -1.692822575575346, 48.111261605245467 ] } },
{ "type": "Feature", "properties": { "AADT": 4590.9, "TR_AADT": 354.7, "s85": 28.1, "TR_s85": 27.9, "savg": 18.6, "TR_savg": 18.7, "raw_oneway": false, "raw_direction": null, "osm_name": "Avenue André Bonnin", "osm_type": "secondary", "osm_lanes": 2.0, "osm_oneway": null, "osm_distance": 0.093088809350955287, "osm_maxspeed": 30.0, "osmid": 356648671.0 }, "geometry": { "type": "Point", "coordinates": [ -1.620162837804686, 48.088672998270802 ] } },
{ "type": "Feature", "properties": { "AADT": 6660.7, "TR_AADT": 225.7, "s85": 39.4, "TR_s85": 37.5, "savg": 32.8, "TR_savg": 29.3, "raw_oneway": false, "raw_direction": null, "osm_name": "Avenue des Acquets", "osm_type": "tertiary", "osm_lanes": null, "osm_oneway": "True", "osm_distance": 3.4158037011179472, "osm_maxspeed": 50.0, "osmid": 292189731.0 }, "geometry": { "type": "Point", "coordinates": [ -1.79553418235416, 48.094253901524141 ] } },
{ "type": "Feature", "properties": { "AADT": 513.3, "TR_AADT": 5.3, "s85": 38.2, "TR_s85": 39.0, "savg": 29.5, "TR_savg": 30.2, "raw_oneway": false, "raw_direction": null, "osm_name": "Rue du Moulin à Vent", "osm_type": "residential", "osm_lanes": null, "osm_oneway": null, "osm_distance": 0.33735138176621454, "osm_maxspeed": null, "osmid": 28898672.0 }, "geometry": { "type": "Point", "coordinates": [ -1.754001065904739, 48.122364767303409 ] } },
{ "type": "Feature", "properties": { "AADT": 15984.5, "TR_AADT": null, "s85": null, "TR_s85": null, "savg": null, "TR_savg": null, "raw_oneway": false, "raw_direction": null, "osm_name": "Boulevard d'Armorique", "osm_type": "primary", "osm_lanes": 1.0, "osm_oneway": "True", "osm_distance": 5.6812429740584696, "osm_maxspeed": 50.0, "osmid": 548844627.0 }, "geometry": { "type": "Point", "coordinates": [ -1.67902396182135, 48.129686026091321 ] } },
{ "type": "Feature", "properties": { "AADT": 4827.9, "TR_AADT": null, "s85": null, "TR_s85": null, "savg": null, "TR_savg": null, "raw_oneway": false, "raw_direction": null, "osm_name": "Avenue du Gallet", "osm_type": "tertiary", "osm_lanes": 2.0, "osm_oneway": null, "osm_distance": 2.7559907971777302, "osm_maxspeed": 30.0, "osmid": 4873861.0 }, "geometry": { "type": "Point", "coordinates": [ -1.642583573603956, 48.128862030840594 ] } },
{ "type": "Feature", "properties": { "AADT": 10238.8, "TR_AADT": null, "s85": null, "TR_s85": null, "savg": null, "TR_savg": null, "raw_oneway": false, "raw_direction": null, "osm_name": "Rue de Vern", "osm_type": "primary", "osm_lanes": 2.0, "osm_oneway": "True", "osm_distance": 4.0942686475910177, "osm_maxspeed": 50.0, "osmid": 934445191.0 }, "geometry": { "type": "Point", "coordinates": [ -1.646046222494741, 48.091715154110929 ] } },
{ "type": "Feature", "properties": { "AADT": 6559.5, "TR_AADT": null, "s85": null, "TR_s85": null, "savg": null, "TR_savg": null, "raw_oneway": false, "raw_direction": null, "osm_name": "Avenue du Général George S. Patton", "osm_type": "secondary", "osm_lanes": 2.0, "osm_oneway": "True", "osm_distance": 1.5010851036656137, "osm_maxspeed": 50.0, "osmid": 709241954.0 }, "geometry": { "type": "Point", "coordinates": [ -1.665239794221218, 48.126861106294072 ] } },
{ "type": "Feature", "properties": { "AADT": 7403.7, "TR_AADT": 183.7, "s85": 52.6, "TR_s85": 47.2, "savg": 42.1, "TR_savg": 38.2, "raw_oneway": false, "raw_direction": null, "osm_name": "Rue de Vezin", "osm_type": "secondary", "osm_lanes": 2.0, "osm_oneway": null, "osm_distance": 1.4186224614539946, "osm_maxspeed": 30.0, "osmid": 5355110.0 }, "geometry": { "type": "Point", "coordinates": [ -1.718458833500869, 48.11612011331804 ] } },
{ "type": "Feature", "properties": { "AADT": 5696.3, "TR_AADT": 254.2, "s85": 45.8, "TR_s85": 40.5, "savg": 36.4, "TR_savg": 34.3, "raw_oneway": false, "raw_direction": null, "osm_name": "Boulevard de Verdun", "osm_type": "secondary", "osm_lanes": 2.0, "osm_oneway": "False", "osm_distance": 1.5951579699843115, "osm_maxspeed": 30.0, "osmid": 460117031.0 }, "geometry": { "type": "Point", "coordinates": [ -1.692643303076678, 48.114449068624658 ] } },
{ "type": "Feature", "properties": { "AADT": 2942.5, "TR_AADT": null, "s85": null, "TR_s85": null, "savg": null, "TR_savg": null, "raw_oneway": false, "raw_direction": null, "osm_name": "Boulevard Albert 1er", "osm_type": "tertiary", "osm_lanes": null, "osm_oneway": null, "osm_distance": 1.3892535210602652, "osm_maxspeed": null, "osmid": 934747522.0 }, "geometry": { "type": "Point", "coordinates": [ -1.679033466748881, 48.089039807754467 ] } },
{ "type": "Feature", "properties": { "AADT": 6518.3, "TR_AADT": 203.2, "s85": 45.6, "TR_s85": 39.3, "savg": 36.4, "TR_savg": 32.4, "raw_oneway": false, "raw_direction": null, "osm_name": "Boulevard du Colombier", "osm_type": "secondary", "osm_lanes": 2.0, "osm_oneway": null, "osm_distance": 1.839255650781513, "osm_maxspeed": 30.0, "osmid": 264821057.0 }, "geometry": { "type": "Point", "coordinates": [ -1.680107182766152, 48.10237289597324 ] } },
{ "type": "Feature", "properties": { "AADT": 8670.3, "TR_AADT": 604.0, "s85": 37.9, "TR_s85": 30.5, "savg": 26.4, "TR_savg": 18.6, "raw_oneway": false, "raw_direction": null, "osm_name": "Avenue Jean Janvier", "osm_type": "primary", "osm_lanes": 1.0, "osm_oneway": "True", "osm_distance": 0.71111218061724324, "osm_maxspeed": 30.0, "osmid": 342866667.0 }, "geometry": { "type": "Point", "coordinates": [ -1.67366279803919, 48.108435779471293 ] } },
{ "type": "Feature", "properties": { "AADT": 5979.1, "TR_AADT": 184.5, "s85": 71.3, "TR_s85": 77.3, "savg": 64.1, "TR_savg": 62.4, "raw_oneway": false, "raw_direction": null, "osm_name": null, "osm_type": "secondary", "osm_lanes": 2.0, "osm_oneway": null, "osm_distance": 0.096015943633696477, "osm_maxspeed": 80.0, "osmid": 886326621.0 }, "geometry": { "type": "Point", "coordinates": [ -1.664139032368527, 48.05566835326038 ] } },
{ "type": "Feature", "properties": { "AADT": 5450.7, "TR_AADT": 160.7, "s85": 48.1, "TR_s85": 45.3, "savg": 38.4, "TR_savg": 34.9, "raw_oneway": false, "raw_direction": null, "osm_name": "Avenue Sergent Maginot", "osm_type": "primary", "osm_lanes": 1.0, "osm_oneway": "True", "osm_distance": 0.92275909132407219, "osm_maxspeed": 30.0, "osmid": 42928960.0 }, "geometry": { "type": "Point", "coordinates": [ -1.667505934083263, 48.109857704217788 ] } },
{ "type": "Feature", "properties": { "AADT": 9622.7, "TR_AADT": null, "s85": null, "TR_s85": null, "savg": null, "TR_savg": null, "raw_oneway": false, "raw_direction": null, "osm_name": "Rue de Nantes", "osm_type": "primary", "osm_lanes": 3.0, "osm_oneway": "True", "osm_distance": 1.018309493125622, "osm_maxspeed": null, "osmid": 22905454.0 }, "geometry": { "type": "Point", "coordinates": [ -1.689071139128486, 48.096819410671621 ] } },
{ "type": "Feature", "properties": { "AADT": 22632.7, "TR_AADT": null, "s85": 86.4, "TR_s85": null, "savg": 70.5, "TR_savg": null, "raw_oneway": false, "raw_direction": null, "osm_name": "Boulevard des Alliés", "osm_type": "primary", "osm_lanes": 2.0, "osm_oneway": "True", "osm_distance": 0.6228865741018772, "osm_maxspeed": 70.0, "osmid": 25726626.0 }, "geometry": { "type": "Point", "coordinates": [ -1.615527332270892, 48.105514340673885 ] } },
{ "type": "Feature", "properties": { "AADT": 1227.0, "TR_AADT": 18.0, "s85": 38.6, "TR_s85": 38.2, "savg": 29.0, "TR_savg": 27.5, "raw_oneway": false, "raw_direction": null, "osm_name": "Rue du Père Lebret", "osm_type": "residential", "osm_lanes": null, "osm_oneway": "False", "osm_distance": 0.79820430579947566, "osm_maxspeed": 30.0, "osmid": 320730310.0 }, "geometry": { "type": "Point", "coordinates": [ -1.696850722765533, 48.112085472535647 ] } },
{ "type": "Feature", "properties": { "AADT": 3198.3, "TR_AADT": null, "s85": null, "TR_s85": null, "savg": null, "TR_savg": null, "raw_oneway": false, "raw_direction": null, "osm_name": "Rue Eugène Pottier", "osm_type": "tertiary", "osm_lanes": 2.0, "osm_oneway": null, "osm_distance": 2.5818431675935849, "osm_maxspeed": null, "osmid": 234018637.0 }, "geometry": { "type": "Point", "coordinates": [ -1.709693277089599, 48.103707513162021 ] } },
{ "type": "Feature", "properties": { "AADT": 1663.3, "TR_AADT": 82.5, "s85": 80.2, "TR_s85": 74.9, "savg": 67.4, "TR_savg": 59.6, "raw_oneway": false, "raw_direction": null, "osm_name": null, "osm_type": "secondary", "osm_lanes": 2.0, "osm_oneway": "False", "osm_distance": 2.0609153116370917, "osm_maxspeed": 70.0, "osmid": 664794861.0 }, "geometry": { "type": "Point", "coordinates": [ -1.599901312211587, 48.196815290148116 ] } },
{ "type": "Feature", "properties": { "AADT": 3706.2, "TR_AADT": null, "s85": null, "TR_s85": null, "savg": null, "TR_savg": null, "raw_oneway": false, "raw_direction": null, "osm_name": "Rue Ferdinand de Lesseps", "osm_type": "secondary", "osm_lanes": null, "osm_oneway": null, "osm_distance": 0.045501860562251396, "osm_maxspeed": 30.0, "osmid": 460938043.0 }, "geometry": { "type": "Point", "coordinates": [ -1.70779948932125, 48.102990530748102 ] } },
{ "type": "Feature", "properties": { "AADT": 1715.9, "TR_AADT": null, "s85": null, "TR_s85": null, "savg": null, "TR_savg": null, "raw_oneway": false, "raw_direction": null, "osm_name": "Rue de la Héronière", "osm_type": "tertiary", "osm_lanes": null, "osm_oneway": null, "osm_distance": 3.3529574668100404, "osm_maxspeed": 30.0, "osmid": 934409377.0 }, "geometry": { "type": "Point", "coordinates": [ -1.656066014702759, 48.135499807194066 ] } },
{ "type": "Feature", "properties": { "AADT": 6289.2, "TR_AADT": null, "s85": null, "TR_s85": null, "savg": null, "TR_savg": null, "raw_oneway": false, "raw_direction": null, "osm_name": "Avenue Gaston Berger", "osm_type": "tertiary", "osm_lanes": 2.0, "osm_oneway": null, "osm_distance": 1.8404014847518568, "osm_maxspeed": 30.0, "osmid": 5069315.0 }, "geometry": { "type": "Point", "coordinates": [ -1.704662559189826, 48.118439874320572 ] } },
{ "type": "Feature", "properties": { "AADT": 1425.0, "TR_AADT": null, "s85": null, "TR_s85": null, "savg": null, "TR_savg": null, "raw_oneway": false, "raw_direction": null, "osm_name": "Avenue des Monts d'Arrée", "osm_type": "tertiary", "osm_lanes": 1.0, "osm_oneway": "True", "osm_distance": 4.1571020159765162, "osm_maxspeed": 30.0, "osmid": 4901916.0 }, "geometry": { "type": "Point", "coordinates": [ -1.67296234386369, 48.133945245692303 ] } },
{ "type": "Feature", "properties": { "AADT": 5623.5, "TR_AADT": null, "s85": 95.4, "TR_s85": null, "savg": 82.8, "TR_savg": null, "raw_oneway": false, "raw_direction": null, "osm_name": null, "osm_type": "primary", "osm_lanes": 2.0, "osm_oneway": null, "osm_distance": 0.43697569458814634, "osm_maxspeed": 80.0, "osmid": 467837035.0 }, "geometry": { "type": "Point", "coordinates": [ -1.787554096996728, 48.071386559996228 ] } },
{ "type": "Feature", "properties": { "AADT": 58357.5, "TR_AADT": null, "s85": 120.5, "TR_s85": null, "savg": 102.1, "TR_savg": null, "raw_oneway": false, "raw_direction": null, "osm_name": null, "osm_type": "trunk", "osm_lanes": 2.0, "osm_oneway": "True", "osm_distance": 0.16632964021071395, "osm_maxspeed": 110.0, "osmid": 416535409.0 }, "geometry": { "type": "Point", "coordinates": [ -1.70887916800258, 48.163720052002731 ] } },
{ "type": "Feature", "properties": { "AADT": 6110.2, "TR_AADT": null, "s85": null, "TR_s85": null, "savg": null, "TR_savg": null, "raw_oneway": false, "raw_direction": null, "osm_name": "Avenue Sir Winston Churchill", "osm_type": "secondary", "osm_lanes": 2.0, "osm_oneway": null, "osm_distance": 3.2311446732599109, "osm_maxspeed": 30.0, "osmid": 323828355.0 }, "geometry": { "type": "Point", "coordinates": [ -1.708234400703651, 48.119552348219074 ] } },
{ "type": "Feature", "properties": { "AADT": 3626.5, "TR_AADT": null, "s85": null, "TR_s85": null, "savg": null, "TR_savg": null, "raw_oneway": false, "raw_direction": null, "osm_name": "Rue Pierre Martin", "osm_type": "residential", "osm_lanes": null, "osm_oneway": "False", "osm_distance": 2.2264584624194614, "osm_maxspeed": 30.0, "osmid": 430170710.0 }, "geometry": { "type": "Point", "coordinates": [ -1.66402528366171, 48.102701924628946 ] } },
{ "type": "Feature", "properties": { "AADT": 2270.0, "TR_AADT": 59.0, "s85": 38.0, "TR_s85": 37.7, "savg": 28.4, "TR_savg": 26.0, "raw_oneway": false, "raw_direction": null, "osm_name": "Avenue de Pologne", "osm_type": "tertiary", "osm_lanes": null, "osm_oneway": "True", "osm_distance": 11.540427718629397, "osm_maxspeed": 30.0, "osmid": 5829430.0 }, "geometry": { "type": "Point", "coordinates": [ -1.650961036129471, 48.085572424706228 ] } },
{ "type": "Feature", "properties": { "AADT": 14661.3, "TR_AADT": null, "s85": 39.0, "TR_s85": null, "savg": 30.5, "TR_savg": null, "raw_oneway": false, "raw_direction": null, "osm_name": "Rue de Nantes", "osm_type": "primary", "osm_lanes": 2.0, "osm_oneway": null, "osm_distance": 4.2332728901599426, "osm_maxspeed": 50.0, "osmid": 5097948.0 }, "geometry": { "type": "Point", "coordinates": [ -1.695970919376601, 48.08495532693194 ] } },
{ "type": "Feature", "properties": { "AADT": 5205.1, "TR_AADT": null, "s85": null, "TR_s85": null, "savg": null, "TR_savg": null, "raw_oneway": false, "raw_direction": null, "osm_name": "Rue d'Antrain", "osm_type": "secondary", "osm_lanes": 2.0, "osm_oneway": null, "osm_distance": 0.30524912057428516, "osm_maxspeed": 30.0, "osmid": 464251610.0 }, "geometry": { "type": "Point", "coordinates": [ -1.668927056884759, 48.12295650733919 ] } },
{ "type": "Feature", "properties": { "AADT": 5078.4, "TR_AADT": 51.7, "s85": 38.6, "TR_s85": 33.1, "savg": 30.9, "TR_savg": 24.8, "raw_oneway": false, "raw_direction": null, "osm_name": "Avenue Général Leclerc", "osm_type": "secondary", "osm_lanes": 1.0, "osm_oneway": "True", "osm_distance": 1.4662126768661605, "osm_maxspeed": 30.0, "osmid": 706959253.0 }, "geometry": { "type": "Point", "coordinates": [ -1.638578874085769, 48.113981049915211 ] } },
{ "type": "Feature", "properties": { "AADT": 9088.9, "TR_AADT": 241.2, "s85": 43.2, "TR_s85": 36.9, "savg": 33.8, "TR_savg": 27.5, "raw_oneway": false, "raw_direction": null, "osm_name": "Boulevard Voltaire", "osm_type": "secondary", "osm_lanes": 2.0, "osm_oneway": "False", "osm_distance": 0.87588248083949971, "osm_maxspeed": 50.0, "osmid": 82829055.0 }, "geometry": { "type": "Point", "coordinates": [ -1.696461194342797, 48.10507875833202 ] } },
{ "type": "Feature", "properties": { "AADT": 1051.0, "TR_AADT": 82.0, "s85": 82.7, "TR_s85": 86.2, "savg": 66.2, "TR_savg": 66.8, "raw_oneway": false, "raw_direction": null, "osm_name": null, "osm_type": "tertiary", "osm_lanes": null, "osm_oneway": null, "osm_distance": 0.83607974077356872, "osm_maxspeed": 70.0, "osmid": 491614333.0 }, "geometry": { "type": "Point", "coordinates": [ -1.703765988349927, 47.987865203485725 ] } },
{ "type": "Feature", "properties": { "AADT": 8260.0, "TR_AADT": null, "s85": null, "TR_s85": null, "savg": null, "TR_savg": null, "raw_oneway": false, "raw_direction": null, "osm_name": "Rue de Saint-Brieuc", "osm_type": "primary", "osm_lanes": 1.0, "osm_oneway": "True", "osm_distance": 2.1000305343609544, "osm_maxspeed": 50.0, "osmid": 5109241.0 }, "geometry": { "type": "Point", "coordinates": [ -1.705754151413294, 48.114020024343255 ] } },
{ "type": "Feature", "properties": { "AADT": 5100.7, "TR_AADT": 99.2, "s85": 46.5, "TR_s85": 45.8, "savg": 36.9, "TR_savg": 35.8, "raw_oneway": false, "raw_direction": null, "osm_name": "Avenue Sergent Maginot", "osm_type": "primary", "osm_lanes": null, "osm_oneway": "True", "osm_distance": 8.3492776963700219, "osm_maxspeed": 30.0, "osmid": 264767453.0 }, "geometry": { "type": "Point", "coordinates": [ -1.66110227642508, 48.109890298980261 ] } },
{ "type": "Feature", "properties": { "AADT": 22366.0, "TR_AADT": null, "s85": 87.7, "TR_s85": null, "savg": 77.1, "TR_savg": null, "raw_oneway": false, "raw_direction": null, "osm_name": null, "osm_type": "primary", "osm_lanes": 2.0, "osm_oneway": null, "osm_distance": 1.3646329130794046, "osm_maxspeed": 80.0, "osmid": 23591798.0 }, "geometry": { "type": "Point", "coordinates": [ -1.725523569002454, 48.053282371000506 ] } },
{ "type": "Feature", "properties": { "AADT": 8232.8, "TR_AADT": 440.5, "s85": 48.1, "TR_s85": 46.6, "savg": 39.4, "TR_savg": 37.7, "raw_oneway": false, "raw_direction": null, "osm_name": "Boulevard Louis Pasteur", "osm_type": "secondary", "osm_lanes": null, "osm_oneway": null, "osm_distance": 0.027154294238144531, "osm_maxspeed": null, "osmid": 8586363.0 }, "geometry": { "type": "Point", "coordinates": [ -1.743871450428683, 48.019611995891083 ] } },
{ "type": "Feature", "properties": { "AADT": 1517.0, "TR_AADT": 17.0, "s85": 35.4, "TR_s85": 28.7, "savg": 27.1, "TR_savg": 22.1, "raw_oneway": false, "raw_direction": null, "osm_name": "Rue de la Godmondière", "osm_type": "living_street", "osm_lanes": null, "osm_oneway": "True", "osm_distance": 0.17460969309323357, "osm_maxspeed": null, "osmid": 9897219.0 }, "geometry": { "type": "Point", "coordinates": [ -1.667891442773022, 48.098504969413106 ] } },
{ "type": "Feature", "properties": { "AADT": 1885.2, "TR_AADT": 102.2, "s85": 47.7, "TR_s85": 40.0, "savg": 39.8, "TR_savg": 34.8, "raw_oneway": false, "raw_direction": null, "osm_name": "Rue des Courtines", "osm_type": "tertiary", "osm_lanes": 2.0, "osm_oneway": null, "osm_distance": 0.24830174058522986, "osm_maxspeed": 40.0, "osmid": 482933164.0 }, "geometry": { "type": "Point", "coordinates": [ -1.710925430858881, 48.155916371509967 ] } },
{ "type": "Feature", "properties": { "AADT": 1872.2, "TR_AADT": 52.7, "s85": 57.2, "TR_s85": 56.7, "savg": 47.8, "TR_savg": 46.2, "raw_oneway": false, "raw_direction": null, "osm_name": null, "osm_type": "tertiary", "osm_lanes": 2.0, "osm_oneway": null, "osm_distance": 0.66358506378314153, "osm_maxspeed": 30.0, "osmid": 25798552.0 }, "geometry": { "type": "Point", "coordinates": [ -1.634765403080013, 48.209889518293572 ] } },